{
  "TGMR": {
    "VenueCode": "TGMR",
    "VenueName": "9D Theatre: Grand Mall, Raigarh",
    "VenueAddress": "Grand Mall, 4th Floor, Gouri Shankar Mandir Chowk, Raigarh, Chhattisgarh 496001, India",
    "City": "Raigarh",
    "State": "Chhattisgarh",
    "RegionCode": "RAIG",
    "SubRegionCode": "RAIG",
    "Latitude": "21.8945",
    "Longitude": "83.3961",
    "AvailableFormats": "7D"
  },
  "CXKR": {
    "VenueCode": "CXKR",
    "VenueName": "Cineplexx: Beside Hotel Deepti, Rourkela",
    "VenueAddress": "Railway Colony, Ring Road, Rourkela, Odisha 769001, India",
    "City": "Rourkela",
    "State": "Odisha",
    "RegionCode": "RKOR",
    "SubRegionCode": "RKOR",
    "Latitude": "22.2342",
    "Longitude": "84.8724",
    "AvailableFormats": "2D"
  },
  "SROP": {
    "VenueCode": "SROP",
    "VenueName": "Shree Ram Talkies: Shahpura",
    "VenueAddress": "Talav Road, Kothar Mohalla, Trimurti Chouraha, Shahpura, Rajasthan 311404, India",
    "City": "Shahpura",
    "State": "Rajasthan",
    "RegionCode": "SHAA",
    "SubRegionCode": "SHAA",
    "Latitude": "25.6223",
    "Longitude": "74.9237",
    "AvailableFormats": "2D"
  },
  "GTSV": {
    "VenueCode": "GTSV",
    "VenueName": "G3 Theatres Srinivasa Theatre: Vuyyuru",
    "VenueAddress": "Telaprolu - Vuyyuru Valluru Road, Katuru Road, Near IDBI Bank, Opposite Swarna motors YAMAHA, Vuyyuru, Andhra Pradesh 521165, India",
    "City": "Vuyyuru",
    "State": "Andhra Pradesh",
    "RegionCode": "VYUR",
    "SubRegionCode": "VYUR",
    "Latitude": "16.3698",
    "Longitude": "80.8439",
    "AvailableFormats": "2D"
  },
  "SNTY": {
    "VenueCode": "SNTY",
    "VenueName": "Shanthi Theater A/C 2K Dolby: Vuyyuru",
    "VenueAddress": "Katuru Road, Beside Honda showroom, Vuyyuru, Andhra Pradesh 521165, India",
    "City": "Vuyyuru",
    "State": "Andhra Pradesh",
    "RegionCode": "VYUR",
    "SubRegionCode": "VYUR",
    "Latitude": "16.3675",
    "Longitude": "80.8432",
    "AvailableFormats": "2D"
  },
  "SMYY": {
    "VenueCode": "SMYY",
    "VenueName": "Sai Mahal Theater: Vuyyuru",
    "VenueAddress": "Bandar, Main Road, Near - Bus Stand, Vuyyuru, Andhra Pradesh 521165, India",
    "City": "Vuyyuru",
    "State": "Andhra Pradesh",
    "RegionCode": "VYUR",
    "SubRegionCode": "VYUR",
    "Latitude": "16.3605",
    "Longitude": "80.8541",
    "AvailableFormats": "2D"
  },
  "CNCS": {
    "VenueCode": "CNCS",
    "VenueName": "Connplex Cinemas: Sangamner",
    "VenueAddress": "2nd Floor, Malpani Multiplex Mall, Gunjalwadi, Sangamner, Maharashtra 422605, India",
    "City": "Sangamner",
    "State": "Maharashtra",
    "RegionCode": "SMNE",
    "SubRegionCode": "SMNE",
    "Latitude": "19.5948",
    "Longitude": "74.1942",
    "AvailableFormats": "2D"
  },
  "CSTM": {
    "VenueCode": "CSTM",
    "VenueName": "Chitra Cinema: Satana",
    "VenueAddress": "Sonar Lane, Ambedkar Nagar, Satana, Maharashtra 423301, India",
    "City": "Satana",
    "State": "Maharashtra",
    "RegionCode": "STNA",
    "SubRegionCode": "STNA",
    "Latitude": "20.5959",
    "Longitude": "74.1976",
    "AvailableFormats": "2D"
  },
  "NUCD": {
    "VenueCode": "NUCD",
    "VenueName": "New Upasna Cinema: Vikasnagar, Dehradun",
    "VenueAddress": "Kotwali Bypass Road, Punjabi Colony, Vikasnagar, Uttarakhand 248198, India",
    "City": "Vikasnagar",
    "State": "Uttarakhand",
    "RegionCode": "VKNG",
    "SubRegionCode": "VKNG",
    "Latitude": "30.4674",
    "Longitude": "77.7766",
    "AvailableFormats": "2D"
  },
  "SHCZ": {
    "VenueCode": "SHCZ",
    "VenueName": "Sharda Cinema: Sukma",
    "VenueAddress": "Prem Nagar, Near High School And Sukma Post Office, Sukma, Chhattisgarh 494111, India",
    "City": "Sukma",
    "State": "Chhattisgarh",
    "RegionCode": "SUKU",
    "SubRegionCode": "SUKU",
    "Latitude": "18.391",
    "Longitude": "81.6572",
    "AvailableFormats": "2D"
  },
  "NJCT": {
    "VenueCode": "NJCT",
    "VenueName": "New Jacobs Cinemas Enhanced 4K: Thiruvalla",
    "VenueAddress": "State Highway 12, Manipuzha Peringara Road, Near Kavumbhagom Municipality Complex, Thiruvalla, Kerala 689102, India",
    "City": "Thiruvalla",
    "State": "Kerala",
    "RegionCode": "THVL",
    "SubRegionCode": "THVL",
    "Latitude": "9.37671",
    "Longitude": "76.5566",
    "AvailableFormats": "2D"
  },
  "COPC": {
    "VenueCode": "COPC",
    "VenueName": "Cosmo Palace Cinema: Raisinghnagar",
    "VenueAddress": "22 PS Road, Near - Raisingnagar railway station, Raisinghnagar, Rajasthan 335051, India",
    "City": "Raisinghnagar",
    "State": "Rajasthan",
    "RegionCode": "RSNG",
    "SubRegionCode": "RSNG",
    "Latitude": "29.5374",
    "Longitude": "73.4503",
    "AvailableFormats": "2D"
  },
  "STVV": {
    "VenueCode": "STVV",
    "VenueName": "Swastik Talkies: Vaijapur",
    "VenueAddress": "Sainath Nagar, Vaijapur-Gangapur Road, Vaijapur, Maharashtra 423701, India",
    "City": "Vaijapur",
    "State": "Maharashtra",
    "RegionCode": "VAIJ",
    "SubRegionCode": "VAIJ",
    "Latitude": "19.9255",
    "Longitude": "74.7292",
    "AvailableFormats": "2D"
  },
  "SKRN": {
    "VenueCode": "SKRN",
    "VenueName": "SreeKanya Theatre 4K Dolby Atmos: Rly New Colony",
    "VenueAddress": "43-9-37, Railway New Colony Road, Subbalakshmi Nagar, Railway New Colony, Opposite SBI, Vizag (Visakhapatnam), Andhra Pradesh 530016, India",
    "City": "Vizag (Visakhapatnam)",
    "State": "Andhra Pradesh",
    "RegionCode": "VIZA",
    "SubRegionCode": "VIZA",
    "Latitude": "17.7277",
    "Longitude": "83.2951",
    "AvailableFormats": "2D"
  },
  "APPZ": {
    "VenueCode": "APPZ",
    "VenueName": "Aruna Picture Palace 2K A/C PAM",
    "VenueAddress": "19-11-24-23, Pedagantyada, Vizag (Visakhapatnam), Andhra Pradesh 530044, India",
    "City": "Vizag (Visakhapatnam)",
    "State": "Andhra Pradesh",
    "RegionCode": "VIZA",
    "SubRegionCode": "VIZA",
    "Latitude": "17.6638",
    "Longitude": "83.2051",
    "AvailableFormats": "2D"
  },
  "YMGN": {
    "VenueCode": "YMGN",
    "VenueName": "Srinivasa Theater A/c 2K Dolby: Yemmiganur",
    "VenueAddress": "1/1161, First Floor, Geethanagar, Yemmiganur, Andhra Pradesh 518360, India",
    "City": "Yemmiganur",
    "State": "Andhra Pradesh",
    "RegionCode": "YEMM",
    "SubRegionCode": "YEMM",
    "Latitude": "15.7725",
    "Longitude": "77.4792",
    "AvailableFormats": "2D"
  },
  "SVTU": {
    "VenueCode": "SVTU",
    "VenueName": "Sri Venkateswara Theater: Tangutur",
    "VenueAddress": "Tangutur Podili Road, Opposite to Airtel Show Room, Tangutur, Andhra Pradesh 523274, India",
    "City": "Tangutur",
    "State": "Andhra Pradesh",
    "RegionCode": "TANG",
    "SubRegionCode": "TANG",
    "Latitude": "15.3424",
    "Longitude": "80.0337",
    "AvailableFormats": "2D"
  },
  "GTAD": {
    "VenueCode": "GTAD",
    "VenueName": "Gayathri Theater 2K Dolby: Yerragondapalem",
    "VenueAddress": "28R5+2V6, Yerragondapalem, Yerragondapalem, Andhra Pradesh 523327, India",
    "City": "Yerragondapalem",
    "State": "Andhra Pradesh",
    "RegionCode": "YERA",
    "SubRegionCode": "YERA",
    "Latitude": "16.04",
    "Longitude": "79.3096",
    "AvailableFormats": "2D"
  },
  "PSUS": {
    "VenueCode": "PSUS",
    "VenueName": "PM Cinema (Surbhi-1): Sagwara",
    "VenueAddress": "Surbhi Shopping Mall, Krishna Nagar, Sagwara, Rajasthan 314025, India",
    "City": "Sagwara",
    "State": "Rajasthan",
    "RegionCode": "SAGA",
    "SubRegionCode": "SAGA",
    "Latitude": "23.6672",
    "Longitude": "74.0265",
    "AvailableFormats": "2D"
  },
  "SMCD": {
    "VenueCode": "SMCD",
    "VenueName": "SunMax - Chandra Mahal A/c Dts: Srikakulam",
    "VenueAddress": "G T Road, Official Colony, Beside Canara Bank, Srikakulam, Andhra Pradesh 532001, India",
    "City": "Srikakulam",
    "State": "Andhra Pradesh",
    "RegionCode": "SRKL",
    "SubRegionCode": "SRKL",
    "Latitude": "18.2953",
    "Longitude": "83.9016",
    "AvailableFormats": "2D"
  },
  "CMCM": {
    "VenueCode": "CMCM",
    "VenueName": "Chhotu Maharaj Cine Cafe: Shamgarh",
    "VenueAddress": "The Family Kitchen 97, Garoth Road, Behind Himalaya Ice Factory, Shamgarh, Madhya Pradesh 458883, India",
    "City": "Shamgarh",
    "State": "Madhya Pradesh",
    "RegionCode": "SGAH",
    "SubRegionCode": "SGAH",
    "Latitude": "24.1963",
    "Longitude": "75.6173",
    "AvailableFormats": "2D"
  },
  "SYCT": {
    "VenueCode": "SYCT",
    "VenueName": "Shreepathy Cinemas Dolby Atmos RGBLaser: Thanjavur",
    "VenueAddress": "Graham Nagar, Shivaji Nagar, Thanjavur, Tamil Nadu 613001, India",
    "City": "Thanjavur",
    "State": "Tamil Nadu",
    "RegionCode": "TANJ",
    "SubRegionCode": "TANJ",
    "Latitude": "10.7805",
    "Longitude": "79.1384",
    "AvailableFormats": "2D"
  },
  "STLY": {
    "VenueCode": "STLY",
    "VenueName": "Starline Cinemas: Thanjavur",
    "VenueAddress": "Langval Mall, New Bus Stand Road, Arulananda Nagar West Extension, Thanjavur, Tamil Nadu 613005, India",
    "City": "Thanjavur",
    "State": "Tamil Nadu",
    "RegionCode": "TANJ",
    "SubRegionCode": "TANJ",
    "Latitude": "10.7662",
    "Longitude": "79.1267",
    "AvailableFormats": "2D"
  },
  "CMHU": {
    "VenueCode": "CMHU",
    "VenueName": "Chhotu Maharaj Cine Cafe:Unnao",
    "VenueAddress": "Fantasy Motels Pvt Ltd, Hussain Nagar Bypass Road, Unnao, Uttar Pradesh 209801, India",
    "City": "Unnao",
    "State": "Uttar Pradesh",
    "RegionCode": "UNNA",
    "SubRegionCode": "UNNA",
    "Latitude": "26.5391",
    "Longitude": "80.5025",
    "AvailableFormats": "2D"
  },
  "CMSA": {
    "VenueCode": "CMSA",
    "VenueName": "Chhotu Maharaj Cine Cafe: Shrigonda",
    "VenueAddress": "Pargaon, Ahmednagar Road, Shrigonda, Maharashtra 413701, India",
    "City": "Shrigonda",
    "State": "Maharashtra",
    "RegionCode": "SHRI",
    "SubRegionCode": "SHRI",
    "Latitude": "18.6277",
    "Longitude": "74.6887",
    "AvailableFormats": "2D"
  },
  "CLCU": {
    "VenueCode": "CLCU",
    "VenueName": "Balaji Multiplex: Umred",
    "VenueAddress": "Kawarapeth, Gangapur, Umred, Maharashtra 441203, India",
    "City": "Umred",
    "State": "Maharashtra",
    "RegionCode": "UMRD",
    "SubRegionCode": "UMRD",
    "Latitude": "20.8595",
    "Longitude": "79.3164",
    "AvailableFormats": "2D"
  },
  "PPNT": {
    "VenueCode": "PPNT",
    "VenueName": "Prem Prakash Talkies: Nawalgarh",
    "VenueAddress": "Bank of Baroda, Near Police Station, Nawalgarh, Rajasthan 333042, India",
    "City": "Nawalgarh",
    "State": "Rajasthan",
    "RegionCode": "NANA",
    "SubRegionCode": "NANA",
    "Latitude": "27.8504",
    "Longitude": "75.2675",
    "AvailableFormats": "2D"
  },
  "JTAB": {
    "VenueCode": "JTAB",
    "VenueName": "Srinivasa 70MM AC Delux: Peddapalli",
    "VenueAddress": "Hyderabad - Ramagundam Road, Near Sharanya Hospital, Peddapalli, Telangana 505172, India",
    "City": "Peddapalli",
    "State": "Telangana",
    "RegionCode": "PEDA",
    "SubRegionCode": "PEDA",
    "Latitude": "18.6107",
    "Longitude": "79.381",
    "AvailableFormats": "2D"
  },
  "BUUC": {
    "VenueCode": "BUUC",
    "VenueName": "Times Square Bharath Cinemas: Udupi",
    "VenueAddress": "Mandavi Times Square Mall, 2nd Floor, Mandavi, Manipal Highway, Klasanka Junction, Kunjibettu, Udupi, Karnataka 576102, India",
    "City": "Udupi",
    "State": "Karnataka",
    "RegionCode": "MANI",
    "SubRegionCode": "MANI",
    "Latitude": "13.3457",
    "Longitude": "74.7527",
    "AvailableFormats": "2D"
  },
  "BSVK": {
    "VenueCode": "BSVK",
    "VenueName": "Sri Basaveshwara Cinemas: K.R. Pete",
    "VenueAddress": "No 1231/1142/A, Old Kikkeri Road, BasaveshwaraNagar, Krishnarajpete (K.R.Pete), Karnataka 571426, India",
    "City": "Krishnarajpete (K.R.Pete)",
    "State": "Karnataka",
    "RegionCode": "KEKE",
    "SubRegionCode": "KEKE",
    "Latitude": "12.6644",
    "Longitude": "76.4876",
    "AvailableFormats": "2D"
  },
  "VVVQ": {
    "VenueCode": "VVVQ",
    "VenueName": "V Square Cinema: Pali",
    "VenueAddress": "No 61, Jodhpur Road, Opposite Krishi Mandi, Pali, Rajasthan 306401, India",
    "City": "Pali",
    "State": "Rajasthan",
    "RegionCode": "PAAL",
    "SubRegionCode": "PAAL",
    "Latitude": "25.7983",
    "Longitude": "73.2962",
    "AvailableFormats": "2D"
  },
  "TKMU": {
    "VenueCode": "TKMU",
    "VenueName": "Tirumala Kalamandir: Mulugu",
    "VenueAddress": "EturNagaram - Warangal Road, Near Government Hospital, Mulugu, Telangana 506343, India",
    "City": "Mulugu",
    "State": "Telangana",
    "RegionCode": "MULU",
    "SubRegionCode": "MULU",
    "Latitude": "18.1914",
    "Longitude": "79.9407",
    "AvailableFormats": "2D"
  },
  "ESYL": {
    "VenueCode": "ESYL",
    "VenueName": "E-SQUARE Yashoda: Latur",
    "VenueAddress": "Papvinash Mandir Road, Vyankatesh Nagar, Sawe Wadi, Near Old Renapur Naka, Latur, Maharashtra 413512, India",
    "City": "Latur",
    "State": "Maharashtra",
    "RegionCode": "LAT",
    "SubRegionCode": "LAT",
    "Latitude": "18.4088",
    "Longitude": "76.5691",
    "AvailableFormats": "2D"
  },
  "ACHP": {
    "VenueCode": "ACHP",
    "VenueName": "Abor Cinema Hall: Pasighat",
    "VenueAddress": "Aarun Tamuk Complex, Main Market Pasighat, Near Arunachal Pradesh Rural Bank,Pasighat, Arunachal Pradesh 791102, India",
    "City": "Pasighat",
    "State": "Arunachal Pradesh",
    "RegionCode": "PSHG",
    "SubRegionCode": "PSHG",
    "Latitude": "28.0594",
    "Longitude": "95.3313",
    "AvailableFormats": "2D"
  },
  "BTKD": {
    "VenueCode": "BTKD",
    "VenueName": "Sai Balaji A/c Dolby Surround: Santhanutalapadu",
    "VenueAddress": "GWWQ+JVV, Santhanuthalapadu, Ongole, Andhra Pradesh 523225, India",
    "City": "Ongole",
    "State": "Andhra Pradesh",
    "RegionCode": "ONGL",
    "SubRegionCode": "ONGL",
    "Latitude": "15.5466",
    "Longitude": "79.9397",
    "AvailableFormats": "2D"
  },
  "DESA": {
    "VenueCode": "DESA",
    "VenueName": "Desai Mahal A/C 2K Dolby 7.1: Porumamilla",
    "VenueAddress": "Reddy Nagar, Main Road, Near Andhra Pragathi Gramina Bank, Porumamilla, Andhra Pradesh 516193, India",
    "City": "Porumamilla",
    "State": "Andhra Pradesh",
    "RegionCode": "PORU",
    "SubRegionCode": "PORU",
    "Latitude": "15.0024",
    "Longitude": "78.9905",
    "AvailableFormats": "2D"
  },
  "GBCT": {
    "VenueCode": "GBCT",
    "VenueName": "Gandhi Bhawan Cinema Hall: Tihu",
    "VenueAddress": "Gandhi Bhavan Road, Tihu, Nalbari, Nalbari, Assam 781371, India",
    "City": "Nalbari",
    "State": "Assam",
    "RegionCode": "NALB",
    "SubRegionCode": "NALB",
    "Latitude": "26.4765",
    "Longitude": "91.2709",
    "AvailableFormats": "2D"
  },
  "BLLD": {
    "VenueCode": "BLLD",
    "VenueName": "Bella Luna Cinemas: Nalbari",
    "VenueAddress": "Bella Luna Cinemas, Q Green Hotel 5th Floor, Haripur Highway, Nalbari, Assam 781340, India",
    "City": "Nalbari",
    "State": "Assam",
    "RegionCode": "NALB",
    "SubRegionCode": "NALB",
    "Latitude": "26.4544",
    "Longitude": "91.4091",
    "AvailableFormats": "2D"
  },
  "SKNT": {
    "VenueCode": "SKNT",
    "VenueName": "Sri Krishna Cinemas: Nandikotkur",
    "VenueAddress": "Main Road, Near APSRTC Bus Stand, Nandikotkur, Andhra Pradesh 518401, India",
    "City": "Nandikotkur",
    "State": "Andhra Pradesh",
    "RegionCode": "NDKT",
    "SubRegionCode": "NDKT",
    "Latitude": "15.854",
    "Longitude": "78.2615",
    "AvailableFormats": "2D"
  },
  "SSTE": {
    "VenueCode": "SSTE",
    "VenueName": "Srinivasa Theater A/c 2K Dolby: Markapur",
    "VenueAddress": "Door No 7.662.1.A, Cumbum Road, Near Venugopal Hospital, Markapur, Andhra Pradesh 523316, India",
    "City": "Markapur",
    "State": "Andhra Pradesh",
    "RegionCode": "MARK",
    "SubRegionCode": "MARK",
    "Latitude": "15.7376",
    "Longitude": "79.2637",
    "AvailableFormats": "2D"
  },
  "VJMR": {
    "VenueCode": "VJMR",
    "VenueName": "Vijaya Theater: Markapur",
    "VenueAddress": "Vijaya Theatre Road, Near Luthern Church, Markapur, Andhra Pradesh 523316, India",
    "City": "Markapur",
    "State": "Andhra Pradesh",
    "RegionCode": "MARK",
    "SubRegionCode": "MARK",
    "Latitude": "15.7419",
    "Longitude": "79.2697",
    "AvailableFormats": "2D"
  },
  "NTPU": {
    "VenueCode": "NTPU",
    "VenueName": "New Theatre 2K 3D Dolby Atmos: Pudunagaram",
    "VenueAddress": "Koduvayur, Palakkad, Pudunagaram, Kerala 678503, India",
    "City": "Pudunagaram",
    "State": "Kerala",
    "RegionCode": "PLKK",
    "SubRegionCode": "PLKK",
    "Latitude": "10.6814",
    "Longitude": "76.6736",
    "AvailableFormats": "2D"
  },
  "RDKN": {
    "VenueCode": "RDKN",
    "VenueName": "Radhakrishna Cinemax: Nayagarh",
    "VenueAddress": "Khandapada Road, Near Canara Bank, Nayagarh, Odisha 752070, India",
    "City": "Nayagarh",
    "State": "Odisha",
    "RegionCode": "NAYG",
    "SubRegionCode": "NAYG",
    "Latitude": "20.1317",
    "Longitude": "85.1048",
    "AvailableFormats": "2D"
  },
  "ADGC": {
    "VenueCode": "ADGC",
    "VenueName": "Adeshwar Global Cinemas: Narayanpur",
    "VenueAddress": "Collectorate Road, Near Sports Ground, Narayanpur (CH), Chhattisgarh 494661, India",
    "City": "Narayanpur (CH)",
    "State": "Chhattisgarh",
    "RegionCode": "NRYA",
    "SubRegionCode": "NRYA",
    "Latitude": "19.7218",
    "Longitude": "81.2415",
    "AvailableFormats": "2D"
  },
  "VRBP": {
    "VenueCode": "VRBP",
    "VenueName": "Veerabhadra Theatre: Peddapuram",
    "VenueAddress": "Bangaramma Temple Street, Cinema Road, Peddapuram, Andhra Pradesh 533437, India",
    "City": "Peddapuram",
    "State": "Andhra Pradesh",
    "RegionCode": "PEDP",
    "SubRegionCode": "PEDP",
    "Latitude": "17.0761",
    "Longitude": "82.1331",
    "AvailableFormats": "2D"
  },
  "NMNA": {
    "VenueCode": "NMNA",
    "VenueName": "NMC Cinemas A/C 3D 4K DOLBY ATMOS: Nagari",
    "VenueAddress": "NH71, Nagari, Near ABCWO office, Nagari, Andhra Pradesh 517590, India",
    "City": "Nagari",
    "State": "Andhra Pradesh",
    "RegionCode": "NAGI",
    "SubRegionCode": "NAGI",
    "Latitude": "13.3251",
    "Longitude": "79.5877",
    "AvailableFormats": "2D"
  },
  "CMMX": {
    "VenueCode": "CMMX",
    "VenueName": "Chhotu Maharaj Cine Cafe: Mohammadi, Kheri",
    "VenueAddress": "Shiv Sagar Cineplex and Cafe. 2.Gata no.536, Ishlamabad, (Gureaila Chauraha Se Ramlila Maidan Road), Mohammadi, Lakhimpur Kheri, Uttar Pradesh 262804, India",
    "City": "Lakhimpur Kheri",
    "State": "Uttar Pradesh",
    "RegionCode": "LKPK",
    "SubRegionCode": "LKPK",
    "Latitude": "27.946",
    "Longitude": "80.2186",
    "AvailableFormats": "2D"
  },
  "PTKO": {
    "VenueCode": "PTKO",
    "VenueName": "Padma Cinemas Laser Dolby 7.1: Kunigal",
    "VenueAddress": "22GC+X88, Near Divya convention hall, Kunigal, Karnataka 572130, India",
    "City": "Kunigal",
    "State": "Karnataka",
    "RegionCode": "KUUN",
    "SubRegionCode": "KUUN",
    "Latitude": "13.0274",
    "Longitude": "77.0208",
    "AvailableFormats": "2D"
  },
  "RBML": {
    "VenueCode": "RBML",
    "VenueName": "Raj Chitra Mandir: Lakhisarai",
    "VenueAddress": "7, Near Purani Bazar Bus Stop, Badi Dargha Road, Purani Bazar, Lakhisarai, Bihar 811311, India",
    "City": "Lakhisarai",
    "State": "Bihar",
    "RegionCode": "LASK",
    "SubRegionCode": "LASK",
    "Latitude": "25.18",
    "Longitude": "86.0962",
    "AvailableFormats": "2D"
  },
  "SAIC": {
    "VenueCode": "SAIC",
    "VenueName": "Sai Chitramandir: Nagothane",
    "VenueAddress": "Pali Road, Nagothane, Near Suryadarshan Housing Society, Nagothane, Maharashtra 402106, India",
    "City": "Nagothane",
    "State": "Maharashtra",
    "RegionCode": "NAGO",
    "SubRegionCode": "NAGO",
    "Latitude": "18.5406",
    "Longitude": "73.1364",
    "AvailableFormats": "2D"
  },
  "SVTJ": {
    "VenueCode": "SVTJ",
    "VenueName": "Shree Valli Theatre: Nagercoil",
    "VenueAddress": "Sh 46 Vadasery, Nagercoil, Nagercoil, Tamil Nadu 629001, India",
    "City": "Nagercoil",
    "State": "Tamil Nadu",
    "RegionCode": "NAGE",
    "SubRegionCode": "NAGE",
    "Latitude": "8.19094",
    "Longitude": "77.4358",
    "AvailableFormats": "2D"
  },
  "MRTE": {
    "VenueCode": "MRTE",
    "VenueName": "Mahaveer Theatre: Mandya",
    "VenueAddress": "Bangalore Mysore Highway, M.C. Road, Ashok Nagar, Mandya, Karnataka 571401, India",
    "City": "Mandya",
    "State": "Karnataka",
    "RegionCode": "MND",
    "SubRegionCode": "MND",
    "Latitude": "12.5275",
    "Longitude": "76.8955",
    "AvailableFormats": "2D"
  },
  "RBTP": {
    "VenueCode": "RBTP",
    "VenueName": "Ram Balaji Theatre: Pennagaram",
    "VenueAddress": "Dharmapuri - Hogenakkal Road, Near Lucky Hotel, Pennagaram, Tamil Nadu 636810, India",
    "City": "Pennagaram",
    "State": "Tamil Nadu",
    "RegionCode": "PENM",
    "SubRegionCode": "PENM",
    "Latitude": "12.1278",
    "Longitude": "77.9",
    "AvailableFormats": "2D"
  },
  "NLPS": {
    "VenueCode": "NLPS",
    "VenueName": "Nallappas Cinemas: Perundurai",
    "VenueAddress": "Thiruvenkadampalayam, Nallapa Theatre Road, Opposite Sri Vishnu Car Wash, Perundurai, Tamil Nadu 638052, India",
    "City": "Perundurai",
    "State": "Tamil Nadu",
    "RegionCode": "PEDR",
    "SubRegionCode": "PEDR",
    "Latitude": "11.286",
    "Longitude": "77.586",
    "AvailableFormats": "2D"
  },
  "GTNA": {
    "VenueCode": "GTNA",
    "VenueName": "Ganapathi Theatre A/C Dts: Nidadavolu",
    "VenueAddress": "Nidadavole Road, West Godavari, Opposite Ratna Nursing Home, Nidadavolu, Andhra Pradesh 534301, India",
    "City": "Nidadavolu",
    "State": "Andhra Pradesh",
    "RegionCode": "NDVD",
    "SubRegionCode": "NDVD",
    "Latitude": "16.9054",
    "Longitude": "81.6714",
    "AvailableFormats": "2D"
  },
  "DGGC": {
    "VenueCode": "DGGC",
    "VenueName": "Diamond Cinema: Goalpara",
    "VenueAddress": "Above Trends, Pancharatna Road, Near Canara Bank, Goalpara, Assam 783101, India",
    "City": "Goalpara",
    "State": "Assam",
    "RegionCode": "GOAL",
    "SubRegionCode": "GOAL",
    "Latitude": "26.1698",
    "Longitude": "90.6235",
    "AvailableFormats": "2D"
  },
  "SMCR": {
    "VenueCode": "SMCR",
    "VenueName": "Sheshnag Manmandir Cinema: Dhar",
    "VenueAddress": "Mandi Marg, Near Dhareshwar Mandir, Pochaupati, Dhar, Madhya Pradesh 454001, India",
    "City": "Dhar",
    "State": "Madhya Pradesh",
    "RegionCode": "DARH",
    "SubRegionCode": "DARH",
    "Latitude": "22.5963",
    "Longitude": "75.2962",
    "AvailableFormats": "2D"
  },
  "SCGD": {
    "VenueCode": "SCGD",
    "VenueName": "Shyam Cineplex (BIG Screen, Dolby 5.1): Gadarwara",
    "VenueAddress": "Shyam Talkies Road, Subhash Ward, District - Narsinghpur, Gadarwara, Madhya Pradesh 487551, India",
    "City": "Gadarwara",
    "State": "Madhya Pradesh",
    "RegionCode": "GDWR",
    "SubRegionCode": "GDWR",
    "Latitude": "22.9225",
    "Longitude": "78.7837",
    "AvailableFormats": "2D"
  },
  "SRRJ": {
    "VenueCode": "SRRJ",
    "VenueName": "Sri Raja Rajeswari: Jangareddy Gudem",
    "VenueAddress": "Kovvur Road, Near Karur Vysya Bank, Jangareddy Gudem, Andhra Pradesh 534447, India",
    "City": "Jangareddy Gudem",
    "State": "Andhra Pradesh",
    "RegionCode": "JANG",
    "SubRegionCode": "JANG",
    "Latitude": "17.1239",
    "Longitude": "81.298",
    "AvailableFormats": "2D"
  },
  "CNRY": {
    "VenueCode": "CNRY",
    "VenueName": "CNR Mall: Y Screens, Jangareddy Gudem",
    "VenueAddress": "47HV+79P, Government College Road, Near Classic Automotives, Jangareddy Gudem, Andhra Pradesh 534447, India",
    "City": "Jangareddy Gudem",
    "State": "Andhra Pradesh",
    "RegionCode": "JANG",
    "SubRegionCode": "JANG",
    "Latitude": "17.1277",
    "Longitude": "81.2935",
    "AvailableFormats": "2D"
  },
  "KTDI": {
    "VenueCode": "KTDI",
    "VenueName": "Kisan Talkies: Deoli (RJ)",
    "VenueAddress": "National Highway 52, Tonk Road, Narayani Nagar, Deoli(Rajasthan), Rajasthan 304804, India",
    "City": "Deoli(Rajasthan)",
    "State": "Rajasthan",
    "RegionCode": "DEOY",
    "SubRegionCode": "DEOY",
    "Latitude": "25.7613",
    "Longitude": "75.3766",
    "AvailableFormats": "2D"
  },
  "SNJL": {
    "VenueCode": "SNJL",
    "VenueName": "Sri Lakshmi Narasimha Theatre A/C, Dolby 7.1: Jami",
    "VenueAddress": "Jami - Vizianagaram Road, Mangali Veedhi, Near HP Petrol Pump, Jami, Andhra Pradesh 535250, India",
    "City": "Jami",
    "State": "Andhra Pradesh",
    "RegionCode": "JAMI",
    "SubRegionCode": "JAMI",
    "Latitude": "18.0526",
    "Longitude": "83.2569",
    "AvailableFormats": "2D"
  },
  "RKMD": {
    "VenueCode": "RKMD",
    "VenueName": "R K Multiplex: Chinsurah",
    "VenueAddress": "166/122 khadina more, Hooghly, Chinsurah, West Bengal 712101, India",
    "City": "Chinsurah",
    "State": "West Bengal",
    "RegionCode": "CHSA",
    "SubRegionCode": "CHSA",
    "Latitude": "22.8913",
    "Longitude": "88.3811",
    "AvailableFormats": "2D"
  },
  "SMDC": {
    "VenueCode": "SMDC",
    "VenueName": "Smart Moviz (Doom AC Cinema): Haveri",
    "VenueAddress": "Survey No. 79, 3B, RTO Office Road, Near - Bharat Gas Agency, Haveri, Karnataka 581110, India",
    "City": "Haveri",
    "State": "Karnataka",
    "RegionCode": "HRE",
    "SubRegionCode": "HRE",
    "Latitude": "14.82",
    "Longitude": "75.3737",
    "AvailableFormats": "2D"
  },
  "TADG": {
    "VenueCode": "TADG",
    "VenueName": "Tirumala 70MM A/C Dts: Gajwel",
    "VenueAddress": "Balaji Nagar, Near Ek Minar Masjid, Gajwel, Telangana 502278, India",
    "City": "Gajwel",
    "State": "Telangana",
    "RegionCode": "GAJW",
    "SubRegionCode": "GAJW",
    "Latitude": "17.8442",
    "Longitude": "78.6778",
    "AvailableFormats": "2D"
  },
  "MCGS": {
    "VenueCode": "MCGS",
    "VenueName": "Maratha Chitra Mandir: Gadhinglaj",
    "VenueAddress": "Doctor`s Colony, Gadinglaj Chandgad Road, Gadhinglaj, Maharashtra 416502, India",
    "City": "Gadhinglaj",
    "State": "Maharashtra",
    "RegionCode": "KOLH",
    "SubRegionCode": "KOLH",
    "Latitude": "16.2176",
    "Longitude": "74.351",
    "AvailableFormats": "2D"
  },
  "PETK": {
    "VenueCode": "PETK",
    "VenueName": "Pihu Entertainment: Kharsia",
    "VenueAddress": "Near Hotel Pihu palace, Kharsia - Dabhara Road, Kharsia, Chhattisgarh 496661, India",
    "City": "Kharsia",
    "State": "Chhattisgarh",
    "RegionCode": "KHAS",
    "SubRegionCode": "KHAS",
    "Latitude": "21.9837",
    "Longitude": "83.1068",
    "AvailableFormats": "2D"
  },
  "CHAG": {
    "VenueCode": "CHAG",
    "VenueName": "Chandrahas Talkies: Gangavati",
    "VenueAddress": "SH 29, Vidya Nagar, Jain Colony Road, Near Mahaveer Circle, Gangavati, Karnataka 583227, India",
    "City": "Gangavati",
    "State": "Karnataka",
    "RegionCode": "GAVT",
    "SubRegionCode": "GAVT",
    "Latitude": "15.4336",
    "Longitude": "76.5251",
    "AvailableFormats": "2D"
  },
  "KSTL": {
    "VenueCode": "KSTL",
    "VenueName": "KS Talkies A/C 2K Dolby: Hanuman Junction",
    "VenueAddress": "Bapulapadu, KS Talkies Road, Hanuman Junction, Andhra Pradesh 521105, India",
    "City": "Hanuman Junction",
    "State": "Andhra Pradesh",
    "RegionCode": "HANU",
    "SubRegionCode": "HANU",
    "Latitude": "16.639",
    "Longitude": "80.967",
    "AvailableFormats": "2D"
  },
  "AADS": {
    "VenueCode": "AADS",
    "VenueName": "Apsara A/C 4k Dolby Atmos: Kadapa",
    "VenueAddress": "Kadapa - Tirupati Road, Chinna Chowk, Near Apoorva Wedding Function Hall and Auditorium, Kadapa, Andhra Pradesh 516002, India",
    "City": "Kadapa",
    "State": "Andhra Pradesh",
    "RegionCode": "KDPA",
    "SubRegionCode": "KDPA",
    "Latitude": "14.4764",
    "Longitude": "78.8381",
    "AvailableFormats": "2D"
  },
  "NTHZ": {
    "VenueCode": "NTHZ",
    "VenueName": "Natraj Theatre: Huzurabad",
    "VenueAddress": "Vivekananda Nagar, Near IndusInd Bank, Huzurabad, Telangana 505468, India",
    "City": "Huzurabad",
    "State": "Telangana",
    "RegionCode": "HZUB",
    "SubRegionCode": "HZUB",
    "Latitude": "18.1975",
    "Longitude": "79.3991",
    "AvailableFormats": "2D"
  },
  "HCKI": {
    "VenueCode": "HCKI",
    "VenueName": "Heeramoti Cinema: Kotputli",
    "VenueAddress": "NH 8, Near Patel Oil Company, Kotputli, Rajasthan 303108, India",
    "City": "Kotputli",
    "State": "Rajasthan",
    "RegionCode": "KPLI",
    "SubRegionCode": "KPLI",
    "Latitude": "27.7087",
    "Longitude": "76.1956",
    "AvailableFormats": "2D"
  },
  "SSEF": {
    "VenueCode": "SSEF",
    "VenueName": "Sada Shiv Palace: Fatehpur",
    "VenueAddress": "Thana Kothwali Road, Chowk, Fatehpur, Uttar Pradesh 212601, India",
    "City": "Fatehpur",
    "State": "Uttar Pradesh",
    "RegionCode": "FATE",
    "SubRegionCode": "FATE",
    "Latitude": "25.9282",
    "Longitude": "80.8208",
    "AvailableFormats": "2D"
  },
  "MCGX": {
    "VenueCode": "MCGX",
    "VenueName": "Moon Cineplex: Khurja",
    "VenueAddress": "City Station Road, Near Shree Balaji Mandir, Khurja, Uttar Pradesh 203131, India",
    "City": "Khurja",
    "State": "Uttar Pradesh",
    "RegionCode": "KHUR",
    "SubRegionCode": "KHUR",
    "Latitude": "28.2522",
    "Longitude": "77.8461",
    "AvailableFormats": "2D"
  },
  "ERRA": {
    "VenueCode": "ERRA",
    "VenueName": "Erra Cinema: Bhokardhan",
    "VenueAddress": "Mhada Road, Bhokardan, Jalna, Maharashtra 431114, India",
    "City": "Jalna",
    "State": "Maharashtra",
    "RegionCode": "JALN",
    "SubRegionCode": "JALN",
    "Latitude": "20.2486",
    "Longitude": "75.7611",
    "AvailableFormats": "2D"
  },
  "SDTW": {
    "VenueCode": "SDTW",
    "VenueName": "Sharda Cinema: Dantewada",
    "VenueAddress": "Dantewada, Opposite Cafe Adim, Dantewada, Chhattisgarh 494449, India",
    "City": "Dantewada",
    "State": "Chhattisgarh",
    "RegionCode": "DTWD",
    "SubRegionCode": "DTWD",
    "Latitude": "18.8991",
    "Longitude": "81.3467",
    "AvailableFormats": "2D"
  },
  "RMPK": {
    "VenueCode": "RMPK",
    "VenueName": "Sri Rama Krishna Picture Palace A/c DTS",
    "VenueAddress": "Main Road, Near Korukonda Police Station, Korukonda, Andhra Pradesh 533289, India",
    "City": "Korukonda",
    "State": "Andhra Pradesh",
    "RegionCode": "GOKM",
    "SubRegionCode": "GOKM",
    "Latitude": "17.1703",
    "Longitude": "81.8274",
    "AvailableFormats": "2D"
  },
  "PTHK": {
    "VenueCode": "PTHK",
    "VenueName": "Prasanthi Theatre: Kandukur",
    "VenueAddress": "DV Nagar, Near Ramalayam Temple, Kandukur, Andhra Pradesh 523105, India",
    "City": "Kandukur",
    "State": "Andhra Pradesh",
    "RegionCode": "KAND",
    "SubRegionCode": "KAND",
    "Latitude": "15.2147",
    "Longitude": "79.9046",
    "AvailableFormats": "2D"
  },
  "PXCS": {
    "VenueCode": "PXCS",
    "VenueName": "Phalanx Cinemas: Kotdwar",
    "VenueAddress": "Phalanx Cinemas, Sidhbali Wedding Point The Big Hall Sitabpur, Kotdwara, Uttarakhand 246149, India",
    "City": "Kotdwara",
    "State": "Uttarakhand",
    "RegionCode": "KOTD",
    "SubRegionCode": "KOTD",
    "Latitude": "29.7463",
    "Longitude": "78.516",
    "AvailableFormats": "2D"
  },
  "SVLU": {
    "VenueCode": "SVLU",
    "VenueName": "Sri Venkateswara Talkies: Kasibugga",
    "VenueAddress": "Shivaji Nagar, KT Road, Kasibugga, Andhra Pradesh 532221, India",
    "City": "Kasibugga",
    "State": "Andhra Pradesh",
    "RegionCode": "KSBG",
    "SubRegionCode": "KSBG",
    "Latitude": "18.7681",
    "Longitude": "84.4171",
    "AvailableFormats": "2D"
  },
  "STAH": {
    "VenueCode": "STAH",
    "VenueName": "Satish Talkies: Hasanpur",
    "VenueAddress": "City Road, Ambedkar Park Road, Near State Bank of India, Hasanpur, Uttar Pradesh 244242, India",
    "City": "Hasanpur",
    "State": "Uttar Pradesh",
    "RegionCode": "HANS",
    "SubRegionCode": "HANS",
    "Latitude": "28.7268",
    "Longitude": "78.2843",
    "AvailableFormats": "2D"
  },
  "JRGF": {
    "VenueCode": "JRGF",
    "VenueName": "JRG Movie Palace: Fatehpur",
    "VenueAddress": "National Highway 11, Near to Gahlot Motors, Fatehpur(Rajasthan), Rajasthan 332301, India",
    "City": "Fatehpur(Rajasthan)",
    "State": "Rajasthan",
    "RegionCode": "FATR",
    "SubRegionCode": "FATR",
    "Latitude": "27.9846",
    "Longitude": "74.9535",
    "AvailableFormats": "2D"
  },
  "CDOK": {
    "VenueCode": "CDOK",
    "VenueName": "Connplex Cinemas (Signature): Utkal Centre Point",
    "VenueAddress": "Utkal Centre Point Mall, Chorda Bypass Square, Byasanagar Main Road, Jajpur Road, Odisha 755019, India",
    "City": "Jajpur Road",
    "State": "Odisha",
    "RegionCode": "JAJP",
    "SubRegionCode": "JAJP",
    "Latitude": "20.9518",
    "Longitude": "86.1306",
    "AvailableFormats": "2D"
  },
  "CMSG": {
    "VenueCode": "CMSG",
    "VenueName": "Chhotu Maharaj Cine Cafe: Suriya, Giridi",
    "VenueAddress": "Rajdhanwar Road, Bank of India, Barki Suriya, Suriya, Jharkhand 825320, India",
    "City": "Suriya",
    "State": "Jharkhand",
    "RegionCode": "GIRI",
    "SubRegionCode": "GIRI",
    "Latitude": "24.1623",
    "Longitude": "85.8825",
    "AvailableFormats": "2D"
  },
  "APTD": {
    "VenueCode": "APTD",
    "VenueName": "FUN Cinemas Apsara Talkies: Durg",
    "VenueAddress": "Sindhi Colony, Station Road, Guru Nanak Nagar, Durg, Chhattisgarh 491001, India",
    "City": "Durg",
    "State": "Chhattisgarh",
    "RegionCode": "DURG",
    "SubRegionCode": "DURG",
    "Latitude": "21.1963",
    "Longitude": "81.2845",
    "AvailableFormats": "2D"
  },
  "KMPG": {
    "VenueCode": "KMPG",
    "VenueName": "Kumari Picture Palace A/C Dts: Ganapavaram",
    "VenueAddress": "Ganapavaram - Pippara Road, Near Ganapavaram Panchayat Office, Ganapavaram, Andhra Pradesh 534198, India",
    "City": "Ganapavaram",
    "State": "Andhra Pradesh",
    "RegionCode": "GANP",
    "SubRegionCode": "GANP",
    "Latitude": "16.7032",
    "Longitude": "81.4632",
    "AvailableFormats": "2D"
  },
  "MUTJ": {
    "VenueCode": "MUTJ",
    "VenueName": "Murali Deluxe Theatre: Jammikunta",
    "VenueAddress": "Girls High School Road, Near Vasavi Kanyaka Parameswari, Jammikunta, Telangana 505122, India",
    "City": "Jammikunta",
    "State": "Telangana",
    "RegionCode": "JMKN",
    "SubRegionCode": "JMKN",
    "Latitude": "18.2907",
    "Longitude": "79.47",
    "AvailableFormats": "2D"
  },
  "VCCI": {
    "VenueCode": "VCCI",
    "VenueName": "VC Cinema: Alangudi",
    "VenueAddress": "9X5H+9WQ, Navalar Street, Alangudi, Alangudi, Tamil Nadu 622301, India",
    "City": "Alangudi",
    "State": "Tamil Nadu",
    "RegionCode": "ALNI",
    "SubRegionCode": "ALNI",
    "Latitude": "10.3584",
    "Longitude": "78.9799",
    "AvailableFormats": "2D"
  },
  "URBE": {
    "VenueCode": "URBE",
    "VenueName": "Urvasi Mini Theater: Bestavaripeta",
    "VenueAddress": "Kurnool - Ongole Main Road, Opposite to Eswara Reddy Bharat Petrol Pump, Bestavaripeta, Andhra Pradesh 523334, India",
    "City": "Bestavaripeta",
    "State": "Andhra Pradesh",
    "RegionCode": "BEST",
    "SubRegionCode": "BEST",
    "Latitude": "15.5377",
    "Longitude": "79.0974",
    "AvailableFormats": "2D"
  },
  "TCTS": {
    "VenueCode": "TCTS",
    "VenueName": "TS Cinemas: Times Square Mall",
    "VenueAddress": "5th Floor, Times Square Mall, Zoo Road, Guwahati, Assam 781005, India",
    "City": "Guwahati",
    "State": "Assam",
    "RegionCode": "GUW",
    "SubRegionCode": "GUW",
    "Latitude": "26.1596",
    "Longitude": "91.7816",
    "AvailableFormats": "2D"
  },
  "STSN": {
    "VenueCode": "STSN",
    "VenueName": "Sangeet Theatre: Shivaji Nagar",
    "VenueAddress": "No-41 Central Street, Shivaji Nagar, Near Shivaji Nagar Bus Stand, Bengaluru, Karnataka 560051, India",
    "City": "Bengaluru",
    "State": "Karnataka",
    "RegionCode": "BANG",
    "SubRegionCode": "BANG",
    "Latitude": "12.9816",
    "Longitude": "77.6028",
    "AvailableFormats": "2D"
  },
  "AKCH": {
    "VenueCode": "AKCH",
    "VenueName": "Ashok Cine House: Paravur",
    "VenueAddress": "Paravur, North Paravur Road, Near ValluVally Juma Masjid, Kollam, Kerala 691301, India",
    "City": "Kollam",
    "State": "Kerala",
    "RegionCode": "KOLM",
    "SubRegionCode": "KOLM",
    "Latitude": "8.81261",
    "Longitude": "76.6716",
    "AvailableFormats": "2D"
  },
  "APSC": {
    "VenueCode": "APSC",
    "VenueName": "Apsara Theatre Dolby 7.1: Changanassery",
    "VenueAddress": "Aramanapady, Palace Road, Near South Indian Bank, Changanassery, Kerala 686101, India",
    "City": "Changanassery",
    "State": "Kerala",
    "RegionCode": "CNSY",
    "SubRegionCode": "CNSY",
    "Latitude": "9.44915",
    "Longitude": "76.5436",
    "AvailableFormats": "3D|2D"
  },
  "VLTB": {
    "VenueCode": "VLTB",
    "VenueName": "Vishal Talkies: Bulandshahr",
    "VenueAddress": "Vishal Talkies, Civil Lines Kala Aam, Bulandshahr, Uttar Pradesh 203001, India",
    "City": "Bulandshahr",
    "State": "Uttar Pradesh",
    "RegionCode": "BULA",
    "SubRegionCode": "BULA",
    "Latitude": "28.4075",
    "Longitude": "77.8486",
    "AvailableFormats": "2D"
  },
  "SANU": {
    "VenueCode": "SANU",
    "VenueName": "Sri Anu Deluxe: Agiripalli",
    "VenueAddress": "Main Road Agiripalli, Ammavarigudem, Agiripalli, Andhra Pradesh 521211, India",
    "City": "Agiripalli",
    "State": "Andhra Pradesh",
    "RegionCode": "AGIR",
    "SubRegionCode": "AGIR",
    "Latitude": "16.6777",
    "Longitude": "80.7849",
    "AvailableFormats": "2D"
  },
  "AXAM": {
    "VenueCode": "AXAM",
    "VenueName": "Anand Cineplex: Amroha",
    "VenueAddress": "Kailsa Road, Chevara, Amroha, Uttar Pradesh 244221, India",
    "City": "Amroha",
    "State": "Uttar Pradesh",
    "RegionCode": "AMRO",
    "SubRegionCode": "AMRO",
    "Latitude": "28.9054",
    "Longitude": "78.4811",
    "AvailableFormats": "2D"
  },
  "MGMG": {
    "VenueCode": "MGMG",
    "VenueName": "MGM Cinema: Dhuri",
    "VenueAddress": "Sangrur Road, Loha Bazar, Pathshala Mohalla, Dhuri, Punjab 148024, India",
    "City": "Dhuri",
    "State": "Punjab",
    "RegionCode": "DHRI",
    "SubRegionCode": "DHRI",
    "Latitude": "30.3651",
    "Longitude": "75.8596",
    "AvailableFormats": "2D"
  },
  "HTBY": {
    "VenueCode": "HTBY",
    "VenueName": "New Hind Talkies: Bareilly",
    "VenueAddress": "Church Road, Civil Lines, Bareilly, Uttar Pradesh 243001, India",
    "City": "Bareilly",
    "State": "Uttar Pradesh",
    "RegionCode": "BARE",
    "SubRegionCode": "BARE",
    "Latitude": "28.3538",
    "Longitude": "79.4186",
    "AvailableFormats": "2D"
  },
  "MMZS": {
    "VenueCode": "MMZS",
    "VenueName": "MovieMax: Z-Square, Margao (Cine Vishant)",
    "VenueAddress": "Ward No 5, Z Square Cine Vishant Theatre, Aquem Margao Goa, South Goa, Margao, Goa 403601, India",
    "City": "Margao",
    "State": "Goa",
    "RegionCode": "MARG",
    "SubRegionCode": "MARG",
    "Latitude": "15.2715",
    "Longitude": "73.9681",
    "AvailableFormats": "2D"
  },
  "SUDR": {
    "VenueCode": "SUDR",
    "VenueName": "Sudarshan Cinema: Lucknow",
    "VenueAddress": "Sudarshan Cinema Building, Charbagh, Blunt Square, Cash and Pay Colony, Lucknow, Uttar Pradesh 226004, India",
    "City": "Lucknow",
    "State": "Uttar Pradesh",
    "RegionCode": "LUCK",
    "SubRegionCode": "LUCK",
    "Latitude": "26.8333",
    "Longitude": "80.9211",
    "AvailableFormats": "2D"
  },
  "CCAD": {
    "VenueCode": "CCAD",
    "VenueName": "Connplex Cinemas: Anand",
    "VenueAddress": "Lambhvel Road, Purushottam Nagar, Anand, Gujarat 388001, India",
    "City": "Anand",
    "State": "Gujarat",
    "RegionCode": "AND",
    "SubRegionCode": "AND",
    "Latitude": "22.5673",
    "Longitude": "72.9433",
    "AvailableFormats": "2D"
  },
  "SKKC": {
    "VenueCode": "SKKC",
    "VenueName": "SSR Cinema: Khumulwng",
    "VenueAddress": "Salka Hati Complex, 3rd Floor, Radhapur, Khumulwng, Tripura 799045, India",
    "City": "Khumulwng",
    "State": "Tripura",
    "RegionCode": "AGAR",
    "SubRegionCode": "AGAR",
    "Latitude": "23.8002",
    "Longitude": "91.4412",
    "AvailableFormats": "2D"
  },
  "RMCD": {
    "VenueCode": "RMCD",
    "VenueName": "FUN Cinemas Rushil Cinema: Dahegam",
    "VenueAddress": "Rushil Mall, Khodiyar Society, Anuradha Society, Dahegam, Near Atithi Pearl, Dahegam, Gujarat 382305, India",
    "City": "Dahegam",
    "State": "Gujarat",
    "RegionCode": "DHGM",
    "SubRegionCode": "DHGM",
    "Latitude": "23.1657",
    "Longitude": "72.8169",
    "AvailableFormats": "2D"
  },
  "SBCQ": {
    "VenueCode": "SBCQ",
    "VenueName": "Sri Balaji Picture Palace: Cherukupalli",
    "VenueAddress": "Gullapalli, Near - Tenali Bus Stand, Cherukupalli, Andhra Pradesh 522309, India",
    "City": "Cherukupalli",
    "State": "Andhra Pradesh",
    "RegionCode": "BAPA",
    "SubRegionCode": "BAPA",
    "Latitude": "16.0508",
    "Longitude": "80.6832",
    "AvailableFormats": "2D"
  },
  "DCCT": {
    "VenueCode": "DCCT",
    "VenueName": "Deepa Cinema 4K RGB Laser DTS X: Viyyur",
    "VenueAddress": "Thrissur - Shoranur Road, Padukad, Keltron Nagar, Kolazhy, Thrissur, Kerala 680010, India",
    "City": "Thrissur",
    "State": "Kerala",
    "RegionCode": "THSR",
    "SubRegionCode": "THSR",
    "Latitude": "10.5616",
    "Longitude": "76.2174",
    "AvailableFormats": "2D"
  },
  "VTKP": {
    "VenueCode": "VTKP",
    "VenueName": "Vijay Talkies: Pusad",
    "VenueAddress": "State Highway 183, Near Ramdeo Petrol Pump, Pusad, Maharashtra 445204, India",
    "City": "Pusad",
    "State": "Maharashtra",
    "RegionCode": "DIGR",
    "SubRegionCode": "DIGR",
    "Latitude": "19.9142",
    "Longitude": "77.5696",
    "AvailableFormats": "2D"
  },
  "MLAM": {
    "VenueCode": "MLAM",
    "VenueName": "INOX: ML Acropolis Mall, Siliguri",
    "VenueAddress": "6th Floor, Himalayan Builders, ML Acropolis Mall, Sevoke Road, 2nd Mile, Opposite - Anandalok Hospital, Siliguri, West Bengal 734001, India",
    "City": "Siliguri",
    "State": "West Bengal",
    "RegionCode": "SILI",
    "SubRegionCode": "SILI",
    "Latitude": "26.7299",
    "Longitude": "88.4321",
    "AvailableFormats": "2D"
  },
  "SAVT": {
    "VenueCode": "SAVT",
    "VenueName": "Sri Sakthivelan Cinemas Alandurai A/C Laser Sigma",
    "VenueAddress": "Siruvani Main Road, Pudhur,Near Pooluvapatti Primary Health Center, Coimbatore, Tamil Nadu 641101, India",
    "City": "Coimbatore",
    "State": "Tamil Nadu",
    "RegionCode": "COIM",
    "SubRegionCode": "COIM",
    "Latitude": "10.9596",
    "Longitude": "76.8019",
    "AvailableFormats": "2D"
  },
  "GEPL": {
    "VenueCode": "GEPL",
    "VenueName": "GEPL Padmapriya Sripriya: Kakinada",
    "VenueAddress": "Bhanugudi Junction, Kondayya Palem, Kakinada, Andhra Pradesh 533003, India",
    "City": "Kakinada",
    "State": "Andhra Pradesh",
    "RegionCode": "KAKI",
    "SubRegionCode": "KAKI",
    "Latitude": "16.9703",
    "Longitude": "82.2374",
    "AvailableFormats": "2D"
  },
  "AMCD": {
    "VenueCode": "AMCD",
    "VenueName": "Amba Cinema: Delhi",
    "VenueAddress": "GT Road, Ghanta Ghar, Subzi Mandi, Block 40, Shakti Nagar, Near Clock Tower, Delhi, NCR 110007, India",
    "City": "Delhi",
    "State": "NCR",
    "RegionCode": "NCR",
    "SubRegionCode": "DELHI",
    "Latitude": "28.6774",
    "Longitude": "77.2012",
    "AvailableFormats": "2D"
  },
  "CCXR": {
    "VenueCode": "CCXR",
    "VenueName": "Connplex Cinemas: Luxuriance, Gurgaon",
    "VenueAddress": "Entertainland Mall, Floreal Towers, Sector 83, Gurugram (Gurgaon), NCR 122012, India",
    "City": "Gurugram (Gurgaon)",
    "State": "NCR",
    "RegionCode": "NCR",
    "SubRegionCode": "GURG",
    "Latitude": "28.3933",
    "Longitude": "76.9769",
    "AvailableFormats": "2D"
  },
  "GRNG": {
    "VenueCode": "GRNG",
    "VenueName": "Grand Cinemaz: Ghaziabad",
    "VenueAddress": "C-115, Grand Trunk Road, Model Town East, Gandhi Nagar, Nehru Nagar III, Ghaziabad, NCR 201001, India",
    "City": "Ghaziabad",
    "State": "NCR",
    "RegionCode": "NCR",
    "SubRegionCode": "GHAZ",
    "Latitude": "28.6549",
    "Longitude": "77.4356",
    "AvailableFormats": "2D"
  },
  "EBCA": {
    "VenueCode": "EBCA",
    "VenueName": "E-Box Cinemas: Parker Mall, Kundli",
    "VenueAddress": "Parker Mall Sector 62, National Highway 1, Kundli, NCR 131028, India",
    "City": "Kundli",
    "State": "NCR",
    "RegionCode": "NCR",
    "SubRegionCode": "KUND",
    "Latitude": "28.9099",
    "Longitude": "77.1097",
    "AvailableFormats": "2D"
  },
  "CNVG": {
    "VenueCode": "CNVG",
    "VenueName": "Cinepolis: Grand View High Street, Gurugram",
    "VenueAddress": "Ireo Grand View High Street, Golf Course Extension Road, Sector 58, Gurugram (Gurgaon), NCR 122102, India",
    "City": "Gurugram (Gurgaon)",
    "State": "NCR",
    "RegionCode": "NCR",
    "SubRegionCode": "GURG",
    "Latitude": "28.4157",
    "Longitude": "77.1027",
    "AvailableFormats": "2D"
  },
  "MWSS": {
    "VenueCode": "MWSS",
    "VenueName": "US Cinemas: Movie World, Sihani Chungi, Ghaziabad",
    "VenueAddress": "1st Floor, Plot No. A-1/1-7,8, 9, 13, 14, 15, 16 and 17, Site-III, Sihani Chungi, Meerut Road, Ghaziabad, NCR 201003, India",
    "City": "Ghaziabad",
    "State": "NCR",
    "RegionCode": "NCR",
    "SubRegionCode": "GHAZ",
    "Latitude": "28.6828",
    "Longitude": "77.4287",
    "AvailableFormats": "2D"
  },
  "VBOR": {
    "VenueCode": "VBOR",
    "VenueName": "Vibhor Chitralok: Pilkhuwa",
    "VenueAddress": "Near District Hapur and HDFC Bank, Delhi Hapur Road, Ghaziabad, Pilkhuwa, NCR 201001, India",
    "City": "Pilkhuwa",
    "State": "NCR",
    "RegionCode": "NCR",
    "SubRegionCode": "PKWA",
    "Latitude": "28.7065",
    "Longitude": "77.6434",
    "AvailableFormats": "2D"
  },
  "NEEB": {
    "VenueCode": "NEEB",
    "VenueName": "Neelam Cinema: Balotra",
    "VenueAddress": "Gobra Nawapara, Jhanwar-Balotra Road, Balotra Urban Co-operative Bank, Balotra, Rajasthan 344022, India",
    "City": "Balotra",
    "State": "Rajasthan",
    "RegionCode": "BALO",
    "SubRegionCode": "BALO",
    "Latitude": "25.8336",
    "Longitude": "72.249",
    "AvailableFormats": "2D"
  },
  "SUTH": {
    "VenueCode": "SUTH",
    "VenueName": "Sudarshini Talkies: Balehonnur",
    "VenueAddress": "KEB Road, Shiva Nagar Colony, B.Kanbur, Balehonnur, Karnataka 577112, India",
    "City": "Balehonnur",
    "State": "Karnataka",
    "RegionCode": "CHUR",
    "SubRegionCode": "CHUR",
    "Latitude": "13.3492",
    "Longitude": "75.4635",
    "AvailableFormats": "2D"
  },
  "ANDB": {
    "VenueCode": "ANDB",
    "VenueName": "Anand 70MM A/C: Bhupalpalle",
    "VenueAddress": "Jawahar Nagar, Subash Colony, Near APGV Bank, Bhupalpalle, Telangana 506169, India",
    "City": "Bhupalpalle",
    "State": "Telangana",
    "RegionCode": "BHUP",
    "SubRegionCode": "BHUP",
    "Latitude": "18.4388",
    "Longitude": "79.8689",
    "AvailableFormats": "2D"
  },
  "MMXS": {
    "VenueCode": "MMXS",
    "VenueName": "Madhuram Multiplex: Surat",
    "VenueAddress": "Kardava Road, New Dindoli, Vrukshmani Society, Surat, Gujarat 394210, India",
    "City": "Surat",
    "State": "Gujarat",
    "RegionCode": "SURT",
    "SubRegionCode": "SURT",
    "Latitude": "21.1396",
    "Longitude": "72.8827",
    "AvailableFormats": "2D"
  },
  "CNPD": {
    "VenueCode": "CNPD",
    "VenueName": "Sarada Mini A/C Theatre: Chintalapudi",
    "VenueAddress": "Chintalapudi - Eluru Road, Near Old Bus Stand, Chintalapudi, Andhra Pradesh 534460, India",
    "City": "Chintalapudi",
    "State": "Andhra Pradesh",
    "RegionCode": "CHPD",
    "SubRegionCode": "CHPD",
    "Latitude": "17.0655",
    "Longitude": "80.983",
    "AvailableFormats": "2D"
  },
  "SDCE": {
    "VenueCode": "SDCE",
    "VenueName": "Sridar: Marine Drive, Kochi",
    "VenueAddress": "Marine Drive, Shanmugham Road, Opposite Canara Bank, Kochi, Kerala 682035, India",
    "City": "Kochi",
    "State": "Kerala",
    "RegionCode": "KOCH",
    "SubRegionCode": "KOCH",
    "Latitude": "9.97953",
    "Longitude": "76.2768",
    "AvailableFormats": "2D"
  },
  "DHCB": {
    "VenueCode": "DHCB",
    "VenueName": "Darsh Cinema: Basti",
    "VenueAddress": "Badevan Over Bridge, Gorakhpur to Lucknow Highway Road, Near Toll Plaza, Basti, Uttar Pradesh 272002, India",
    "City": "Basti",
    "State": "Uttar Pradesh",
    "RegionCode": "BAST",
    "SubRegionCode": "BAST",
    "Latitude": "26.8054",
    "Longitude": "82.7253",
    "AvailableFormats": "2D"
  },
  "ODEN": {
    "VenueCode": "ODEN",
    "VenueName": "Odeon Cinemas: Rajendra Nagar, Indore",
    "VenueAddress": "Westend Mall, Rajendra Nagar, New Bijalpur, Indore, Madhya Pradesh 452012, India",
    "City": "Indore",
    "State": "Madhya Pradesh",
    "RegionCode": "IND",
    "SubRegionCode": "IND",
    "Latitude": "22.6636",
    "Longitude": "75.826",
    "AvailableFormats": "2D"
  },
  "TNTC": {
    "VenueCode": "TNTC",
    "VenueName": "The Crown Theatre: Calicut",
    "VenueAddress": "Town Hall Road, Mananchira, Near Town Hall, Kozhikode, Kerala 673004, India",
    "City": "Kozhikode",
    "State": "Kerala",
    "RegionCode": "KOZH",
    "SubRegionCode": "KOZH",
    "Latitude": "11.2536",
    "Longitude": "75.779",
    "AvailableFormats": "2D"
  },
  "VBKM": {
    "VenueCode": "VBKM",
    "VenueName": "VBK Max: Cherial",
    "VenueAddress": "Jangaon Road - Kothapally, Near IOCL Petrol Bunk, Cherial, Telangana 506223, India",
    "City": "Cherial",
    "State": "Telangana",
    "RegionCode": "CHRY",
    "SubRegionCode": "CHRY",
    "Latitude": "17.9199",
    "Longitude": "78.9742",
    "AvailableFormats": "2D"
  },
  "RZYM": {
    "VenueCode": "RZYM",
    "VenueName": "RITZY SHA Cinemas 4K RGB LASER ATMOS: Madurai",
    "VenueAddress": "W4CP+PQH, Anna Salai, Gandhi Nagar, Shenoy Nagar, Madurai, Tamil Nadu 625020, India",
    "City": "Madurai",
    "State": "Tamil Nadu",
    "RegionCode": "MADU",
    "SubRegionCode": "MADU",
    "Latitude": "9.92177",
    "Longitude": "78.137",
    "AvailableFormats": "2D"
  },
  "JEMC": {
    "VenueCode": "JEMC",
    "VenueName": "Jolly Enjoy Multiplex: Chotila",
    "VenueAddress": "NH. 8, A Magharikhada, Near Bitter Beans Cafe and Food Zone, Chotila, Gujarat 363520, India",
    "City": "Chotila",
    "State": "Gujarat",
    "RegionCode": "CHOT",
    "SubRegionCode": "CHOT",
    "Latitude": "22.4669",
    "Longitude": "71.2678",
    "AvailableFormats": "2D"
  },
  "CMAU": {
    "VenueCode": "CMAU",
    "VenueName": "Cineplus Multiplex: Abu Road",
    "VenueAddress": "New Town Housing, Revdar Road, Manpur Rural, Abu Road, Rajasthan 307026, India",
    "City": "Abu Road",
    "State": "Rajasthan",
    "RegionCode": "ABRD",
    "SubRegionCode": "ABRD",
    "Latitude": "24.4982",
    "Longitude": "72.766",
    "AvailableFormats": "2D"
  },
  "SIVP": {
    "VenueCode": "SIVP",
    "VenueName": "Shivananda Talkies: Channapatna",
    "VenueAddress": "SH17, M.G. Road, Bengaluru-Mysuru Highway, Channapatna, Channapatna, Karnataka 571501, India",
    "City": "Channapatna",
    "State": "Karnataka",
    "RegionCode": "CPTN",
    "SubRegionCode": "CPTN",
    "Latitude": "12.654",
    "Longitude": "77.2014",
    "AvailableFormats": "2D"
  },
  "ATAG": {
    "VenueCode": "ATAG",
    "VenueName": "Asha Cine Palace: Banarpal",
    "VenueAddress": "Nuahata, Banarpal, Near Tata Steel, Near SBI ATM, Angul, Odisha 759128, India",
    "City": "Angul",
    "State": "Odisha",
    "RegionCode": "ANGL",
    "SubRegionCode": "ANGL",
    "Latitude": "20.8411",
    "Longitude": "85.2256",
    "AvailableFormats": "2D"
  },
  "CHTM": {
    "VenueCode": "CHTM",
    "VenueName": "Chhotu Maharaj: Chhibramau, UP",
    "VenueAddress": "100 Bed Hospital Road, Kannauj, Behind Janta Cold, Chhibramau, Uttar Pradesh 209721, India",
    "City": "Chhibramau",
    "State": "Uttar Pradesh",
    "RegionCode": "CHHI",
    "SubRegionCode": "CHHI",
    "Latitude": "27.1475",
    "Longitude": "79.5114",
    "AvailableFormats": "2D"
  },
  "AAEE": {
    "VenueCode": "AAEE",
    "VenueName": "G3 Theatres Ambica Complex: Eluru",
    "VenueAddress": "Dongala Mandapam Road, Southen Street, Agraharam, Eluru, Andhra Pradesh 534001, India",
    "City": "Eluru",
    "State": "Andhra Pradesh",
    "RegionCode": "ELRU",
    "SubRegionCode": "ELRU",
    "Latitude": "16.7079",
    "Longitude": "81.1028",
    "AvailableFormats": "2D"
  },
  "IWPM": {
    "VenueCode": "IWPM",
    "VenueName": "INOX: West Point Mall, Gangtok-MN",
    "VenueAddress": "4th Floor, West Point Mall, DPH Road, Arithang, Gangtok, Sikkim 737101, India",
    "City": "Gangtok",
    "State": "Sikkim",
    "RegionCode": "GANG",
    "SubRegionCode": "GANG",
    "Latitude": "27.3295",
    "Longitude": "88.612",
    "AvailableFormats": "2D"
  },
  "KCMW": {
    "VenueCode": "KCMW",
    "VenueName": "Kapil Cinema: Mawana",
    "VenueAddress": "Mill Road, Mohalla Kalyan Singh, Mawana, Uttar Pradesh 250401, India",
    "City": "Mawana",
    "State": "Uttar Pradesh",
    "RegionCode": "MERT",
    "SubRegionCode": "MERT",
    "Latitude": "29.1007",
    "Longitude": "77.9156",
    "AvailableFormats": "2D"
  },
  "MCTD": {
    "VenueCode": "MCTD",
    "VenueName": "MT Cineplex 4K DOLBY ATMOS: Pothencode",
    "VenueAddress": "Pothencode Junction, Pothencode, Thiruvananthapuram, Near State Bank Of India, Trivandrum, Kerala 695584, India",
    "City": "Trivandrum",
    "State": "Kerala",
    "RegionCode": "ATTI",
    "SubRegionCode": "ATTI",
    "Latitude": "8.61849",
    "Longitude": "76.8985",
    "AvailableFormats": "2D"
  },
  "SPWR": {
    "VenueCode": "SPWR",
    "VenueName": "S P Cinema: Alwar",
    "VenueAddress": "Neha Complex, Plot Number 19/339, Nehru Garden Road, Near Nangli Circle, Indra Colony, Alwar, Rajasthan 301001, India",
    "City": "Alwar",
    "State": "Rajasthan",
    "RegionCode": "ALWR",
    "SubRegionCode": "ALWR",
    "Latitude": "27.5583",
    "Longitude": "76.6135",
    "AvailableFormats": "2D"
  },
  "SDPO": {
    "VenueCode": "SDPO",
    "VenueName": "Shyam Palace Cinema: Kanpur",
    "VenueAddress": "127, 178,Juhi Hamirpur Road, Kidwai Nagar, Near GPG School, Kanpur, Uttar Pradesh 208014, India",
    "City": "Kanpur",
    "State": "Uttar Pradesh",
    "RegionCode": "KANP",
    "SubRegionCode": "KANP",
    "Latitude": "26.4455",
    "Longitude": "80.3283",
    "AvailableFormats": "2D"
  },
  "PCSK": {
    "VenueCode": "PCSK",
    "VenueName": "PP Cinemall: Mandhana, Kanpur",
    "VenueAddress": "Shadipur, Mandhana, Kanpur, Uttar Pradesh 209217, India",
    "City": "Kanpur",
    "State": "Uttar Pradesh",
    "RegionCode": "KANP",
    "SubRegionCode": "KANP",
    "Latitude": "26.5596",
    "Longitude": "80.2186",
    "AvailableFormats": "2D"
  },
  "ACHV": {
    "VenueCode": "ACHV",
    "VenueName": "Apsara Cinema House: Vijayawada",
    "VenueAddress": "Governor Peta, Eluru Road, Opposite Swarna Mutiplex, Vijayawada, Andhra Pradesh 520002, India",
    "City": "Vijayawada",
    "State": "Andhra Pradesh",
    "RegionCode": "VIJA",
    "SubRegionCode": "VIJA",
    "Latitude": "16.5133",
    "Longitude": "80.6259",
    "AvailableFormats": "2D"
  },
  "SVLA": {
    "VenueCode": "SVLA",
    "VenueName": "Sri Vijaya Lakshmi Theater: Kankipadu",
    "VenueAddress": "CQP7+VG8, Vijayawada - Machilipatnam Road, Kankipadu, Andhra Pradesh 521151, India",
    "City": "Kankipadu",
    "State": "Andhra Pradesh",
    "RegionCode": "VIJA",
    "SubRegionCode": "VIJA",
    "Latitude": "16.4372",
    "Longitude": "80.7638",
    "AvailableFormats": "2D"
  },
  "PICT": {
    "VenueCode": "PICT",
    "VenueName": "Padmavathi Cinema A/C DTS 7.2: Chetpet",
    "VenueAddress": "State Highway 4, Mariamman Koil Street, Chetpet, Tamil Nadu 606801, India",
    "City": "Chetpet",
    "State": "Tamil Nadu",
    "RegionCode": "PPPT",
    "SubRegionCode": "PPPT",
    "Latitude": "12.4657",
    "Longitude": "79.3512",
    "AvailableFormats": "2D"
  },
  "BXDR": {
    "VenueCode": "BXDR",
    "VenueName": "Balaji Cinemax: Dharampur",
    "VenueAddress": "2nd Floor, Tanishq complex, Dharampur Barumal Road, Bilpudi, Dharampur, Gujarat 396050, India",
    "City": "Dharampur",
    "State": "Gujarat",
    "RegionCode": "BILI",
    "SubRegionCode": "BILI",
    "Latitude": "20.5308",
    "Longitude": "73.187",
    "AvailableFormats": "2D"
  },
  "SPWA": {
    "VenueCode": "SPWA",
    "VenueName": "Sri Annapurneshwari Theatre: Anekal",
    "VenueAddress": "Vinayaka Nagar, Annapurna Circle, Bengaluru, Karnataka 562106, India",
    "City": "Bengaluru",
    "State": "Karnataka",
    "RegionCode": "ANEK",
    "SubRegionCode": "ANEK",
    "Latitude": "12.7099",
    "Longitude": "77.6979",
    "AvailableFormats": "2D"
  },
  "MCKO": {
    "VenueCode": "MCKO",
    "VenueName": "Minar Cinema: Kolkata",
    "VenueAddress": "136/2, Bidhan Sarani, Shyam Bazar, Sovabazar, Hati Bagan, Kolkata, West Bengal 700004, India",
    "City": "Kolkata",
    "State": "West Bengal",
    "RegionCode": "KOLK",
    "SubRegionCode": "KOLK",
    "Latitude": "22.5973",
    "Longitude": "88.3719",
    "AvailableFormats": "2D"
  },
  "RTHK": {
    "VenueCode": "RTHK",
    "VenueName": "Rathindra Multiplex: Sodepur",
    "VenueAddress": "38, Rathindra Cinema Hall, 41, RN Ave, Block-D/32, No. 2 Deshabondhu Nagar, Sodepur, Kolkata, West Bengal 700110, India",
    "City": "Kolkata",
    "State": "West Bengal",
    "RegionCode": "KOLK",
    "SubRegionCode": "KOLK",
    "Latitude": "22.7017",
    "Longitude": "88.3826",
    "AvailableFormats": "2D"
  },
  "CCMF": {
    "VenueCode": "CCMF",
    "VenueName": "Chhotu Maharaj Cine Cafe: Charkhi Dadri",
    "VenueAddress": "Main Loharu Road, Rose Petals Hotel Restaurant, Charkhi Dadri, Haryana 127306, India",
    "City": "Charkhi Dadri",
    "State": "Haryana",
    "RegionCode": "CCDD",
    "SubRegionCode": "CCDD",
    "Latitude": "28.5937",
    "Longitude": "76.2574",
    "AvailableFormats": "2D"
  },
  "MRGB": {
    "VenueCode": "MRGB",
    "VenueName": "Manasa RGB Laser ATMOS: Konanakunte",
    "VenueAddress": "No 21/5A, Konanakunte Cross Marg, Konanakunte, Bengaluru, Karnataka 560062, India",
    "City": "Bengaluru",
    "State": "Karnataka",
    "RegionCode": "BANG",
    "SubRegionCode": "BANG",
    "Latitude": "12.8906",
    "Longitude": "77.5622",
    "AvailableFormats": "2D"
  },
  "CPLC": {
    "VenueCode": "CPLC",
    "VenueName": "Cineprime Cinema: Luxuriance, Hanspura",
    "VenueAddress": "601, Sixth Floor, Vishala Empire, Naroda Dehgam Circle, SP Ring Road, Near Muthia Toll Tax, Ahmedabad, Gujarat 382330, India",
    "City": "Ahmedabad",
    "State": "Gujarat",
    "RegionCode": "AHD",
    "SubRegionCode": "AHD",
    "Latitude": "23.092",
    "Longitude": "72.6865",
    "AvailableFormats": "2D"
  },
  "RACD": {
    "VenueCode": "RACD",
    "VenueName": "Rupam Arth Cineplex: Sanand",
    "VenueAddress": "4th floor, Arth Complex, Station Road, Sanad, Near Dwarkesh Mobile, Opposite Karnavati Dairy, Ahmedabad, Gujarat 382110, India",
    "City": "Ahmedabad",
    "State": "Gujarat",
    "RegionCode": "AHD",
    "SubRegionCode": "AHD",
    "Latitude": "22.9964",
    "Longitude": "72.381",
    "AvailableFormats": "2D"
  },
  "ATKT": {
    "VenueCode": "ATKT",
    "VenueName": "Anupama Theatre Dolby 7.1: Kottayam",
    "VenueAddress": "Main Central Road, Tourist Bunglow Road, Near Big Bazaar, Kottayam, Kerala 686001, India",
    "City": "Kottayam",
    "State": "Kerala",
    "RegionCode": "ETTU",
    "SubRegionCode": "ETTU",
    "Latitude": "9.58708",
    "Longitude": "76.5226",
    "AvailableFormats": "2D"
  },
  "SARN": {
    "VenueCode": "SARN",
    "VenueName": "Satyam Theatre: Rajgurunagar (Pune)",
    "VenueAddress": "Ganesh Chowk, Bazarpeth, Pune, Maharashtra 410505, India",
    "City": "Pune",
    "State": "Maharashtra",
    "RegionCode": "PUNE",
    "SubRegionCode": "PUNE",
    "Latitude": "18.8533",
    "Longitude": "73.8837",
    "AvailableFormats": "2D"
  },
  "KKUI": {
    "VenueCode": "KKUI",
    "VenueName": "KT Vision Cinema: Vasai(Screen 1)",
    "VenueAddress": "Navghar Road, Anand Nagar, Opposite - West Panchal Nagar Walkway, Vasai West, Mumbai, Maharashtra 401202, India",
    "City": "Mumbai",
    "State": "Maharashtra",
    "RegionCode": "MUMBAI",
    "SubRegionCode": "MWEST",
    "Latitude": "19.3785",
    "Longitude": "72.8287",
    "AvailableFormats": "2D"
  },
  "RGCM": {
    "VenueCode": "RGCM",
    "VenueName": "Regal Cinema: Colaba",
    "VenueAddress": "Old Custom House Road, Apollo Bunder, Opposite Prince of Wales Museum, Colaba, Mumbai, Maharashtra 400005, India",
    "City": "Mumbai",
    "State": "Maharashtra",
    "RegionCode": "MUMBAI",
    "SubRegionCode": "MCENT",
    "Latitude": "18.9244",
    "Longitude": "72.8324",
    "AvailableFormats": "2D"
  },
  "BRVP": {
    "VenueCode": "BRVP",
    "VenueName": "Bahar Cinema: Vile Parle (E)",
    "VenueAddress": "Wallace Towers, 139-140/B/1, Western Express Highway, Vile Parle (E), Mumbai, Maharashtra 400057, India",
    "City": "Mumbai",
    "State": "Maharashtra",
    "RegionCode": "MUMBAI",
    "SubRegionCode": "MWEST",
    "Latitude": "19.109",
    "Longitude": "72.8532",
    "AvailableFormats": "2D"
  },
  "HRSR": {
    "VenueCode": "HRSR",
    "VenueName": "Sri Hari Theatre: Pattabiram",
    "VenueAddress": "Chennai - Thiruttani, Renigunta Highway, Chennai, Tamil Nadu 600072, India",
    "City": "Chennai",
    "State": "Tamil Nadu",
    "RegionCode": "CHEN",
    "SubRegionCode": "CHEN",
    "Latitude": "13.1216",
    "Longitude": "80.0703",
    "AvailableFormats": "2D"
  },
  "GKGM": {
    "VenueCode": "GKGM",
    "VenueName": "Gayathiri Cinemas A/C Dolby Atmos: Maduranthakam",
    "VenueAddress": "Chennai - Theni Highway, Maduranthakam, Chennai, Tamil Nadu 603306, India",
    "City": "Chennai",
    "State": "Tamil Nadu",
    "RegionCode": "CHEN",
    "SubRegionCode": "CHEN",
    "Latitude": "12.5131",
    "Longitude": "79.8845",
    "AvailableFormats": "2D"
  },
  "TTCD": {
    "VenueCode": "TTCD",
    "VenueName": "Tanthapolis Cinema: Imphal",
    "VenueAddress": "Lamphel Road, Lamphelpat, Imphal, Manipur 795004, India",
    "City": "Imphal",
    "State": "Manipur",
    "RegionCode": "IMPH",
    "SubRegionCode": "IMPH",
    "Latitude": "24.8192",
    "Longitude": "93.928",
    "AvailableFormats": "2D"
  },
  "PTTI": {
    "VenueCode": "PTTI",
    "VenueName": "Palani Cinemas A/C 7.1 Dolby Digital: Tirupati",
    "VenueAddress": "Royal Nagar, Rayala Cheruvuru Road, Nearby Krishna Temple, Tirupati, Andhra Pradesh 517501, India",
    "City": "Tirupati",
    "State": "Andhra Pradesh",
    "RegionCode": "TIRU",
    "SubRegionCode": "TIRU",
    "Latitude": "13.6255",
    "Longitude": "79.4174",
    "AvailableFormats": "2D"
  },
  "MPTT": {
    "VenueCode": "MPTT",
    "VenueName": "Pratap Delux A/c 2k Dolby Atmos: Tirupati",
    "VenueAddress": "Jayasam Road, Tata Nagar, Tirupati, Andhra Pradesh 517501, India",
    "City": "Tirupati",
    "State": "Andhra Pradesh",
    "RegionCode": "TIRU",
    "SubRegionCode": "TIRU",
    "Latitude": "13.6302",
    "Longitude": "79.4239",
    "AvailableFormats": "2D"
  },
  "CVTT": {
    "VenueCode": "CVTT",
    "VenueName": "CVS Movie Land A/c DTS: Tirupati",
    "VenueAddress": "Jayasam Road, Tata Nagar, Tirupati, Andhra Pradesh 517501, India",
    "City": "Tirupati",
    "State": "Andhra Pradesh",
    "RegionCode": "TIRU",
    "SubRegionCode": "TIRU",
    "Latitude": "13.6301",
    "Longitude": "79.424",
    "AvailableFormats": "2D"
  },
  "PCXD": {
    "VenueCode": "PCXD",
    "VenueName": "Prakash Cineplex: Dabra",
    "VenueAddress": "Jawahar Ganj, Gurudwara Road, Dabra, Madhya Pradesh 475110, India",
    "City": "Dabra",
    "State": "Madhya Pradesh",
    "RegionCode": "DABR",
    "SubRegionCode": "DABR",
    "Latitude": "25.8839",
    "Longitude": "78.3284",
    "AvailableFormats": "2D"
  },
  "GCDC": {
    "VenueCode": "GCDC",
    "VenueName": "Geeta Cineplex: Dabra",
    "VenueAddress": "Geeta Talkies Road, Near Shree Krishna Dairy, Subhash Ganj, Darshan Colony, Dabra, Madhya Pradesh 475110, India",
    "City": "Dabra",
    "State": "Madhya Pradesh",
    "RegionCode": "DABR",
    "SubRegionCode": "DABR",
    "Latitude": "25.8863",
    "Longitude": "78.335",
    "AvailableFormats": "2D"
  },
  "CCCF": {
    "VenueCode": "CCCF",
    "VenueName": "City Cine Cafe, Karmalichak: Patna City",
    "VenueAddress": "City Cine Cafe City Hotel, NH 30, Adjacent to City Fuels Petrol Pump, Near Toll Plaza, Patna, Bihar 800009, India",
    "City": "Patna",
    "State": "Bihar",
    "RegionCode": "PATN",
    "SubRegionCode": "PATN",
    "Latitude": "25.5732",
    "Longitude": "85.238",
    "AvailableFormats": "2D"
  },
  "MRAD": {
    "VenueCode": "MRAD",
    "VenueName": "Miraj Cinemas: Anand Mall, Narsingi",
    "VenueAddress": "Anand Mall and Movies, Narsingi Village, Hyderabad, Telangana 500075, India",
    "City": "Hyderabad",
    "State": "Telangana",
    "RegionCode": "HYD",
    "SubRegionCode": "HYD",
    "Latitude": "17.3842",
    "Longitude": "78.3601",
    "AvailableFormats": "2D"
  },
  "CPLK": {
    "VenueCode": "CPLK",
    "VenueName": "Connplex Cinemas: MPM Mall, Banjara Hills",
    "VenueAddress": "4th Floor, MPM Timesquare Mall, Nagarjuna Circle, Road No.1 and 3, Banjara Hills, Hyderabad, Telangana 5000345, India",
    "City": "Hyderabad",
    "State": "Telangana",
    "RegionCode": "HYD",
    "SubRegionCode": "HYD",
    "Latitude": "17.4251",
    "Longitude": "78.4482",
    "AvailableFormats": "2D"
  },
  "SATB": {
    "VenueCode": "SATB",
    "VenueName": "Sandhya RGB Laser Atmos: Bengaluru",
    "VenueAddress": "1st Stage, Chikka Madivala, BTM Layout, Bengaluru, Karnataka 560068, India",
    "City": "Bengaluru",
    "State": "Karnataka",
    "RegionCode": "BANG",
    "SubRegionCode": "BANG",
    "Latitude": "12.92111",
    "Longitude": "77.61806",
    "AvailableFormats": "2D"
  },
  "SNVG": {
    "VenueCode": "SNVG",
    "VenueName": "Srinivasa Theater: Giddalur",
    "VenueAddress": "Swamy, Pathala Nageswara Temple Road, Giddalur, Andhra Pradesh 523357, India",
    "City": "Giddalur",
    "State": "Andhra Pradesh",
    "RegionCode": "GDAL",
    "SubRegionCode": "GDAL",
    "Latitude": "15.3721",
    "Longitude": "78.9236",
    "AvailableFormats": "2D"
  },
  "JMBA": {
    "VenueCode": "JMBA",
    "VenueName": "Jameela Mahal: Buchireddypalem",
    "VenueAddress": "Buchi Old, Bus stand, SH 57, Nagamambapuram, Buchireddypalem, Andhra Pradesh 524305, India",
    "City": "Buchireddypalem",
    "State": "Andhra Pradesh",
    "RegionCode": "BCHR",
    "SubRegionCode": "BCHR",
    "Latitude": "14.5351",
    "Longitude": "79.8773",
    "AvailableFormats": "2D"
  },
  "TEJA": {
    "VenueCode": "TEJA",
    "VenueName": "Eswar Cinemas A/C Dolby: Suryapet",
    "VenueAddress": "4JPG+P6W PSR Center, Main Road, Razam, Suryapet, Telangana 508213, India",
    "City": "Suryapet",
    "State": "Telangana",
    "RegionCode": "SURY",
    "SubRegionCode": "SURY",
    "Latitude": "17.1353",
    "Longitude": "79.6334",
    "AvailableFormats": "2D"
  },
  "STYO": {
    "VenueCode": "STYO",
    "VenueName": "Satyam A/c 4K Dolby Atmos: Ongole",
    "VenueAddress": "60, Sixty Feet Road, Venkateswara Nagar, Ongole, Andhra Pradesh 523001, India",
    "City": "Ongole",
    "State": "Andhra Pradesh",
    "RegionCode": "ONGL",
    "SubRegionCode": "ONGL",
    "Latitude": "15.5057",
    "Longitude": "80.0499",
    "AvailableFormats": "2D"
  },
  "JTBP": {
    "VenueCode": "JTBP",
    "VenueName": "Bhavani Picture Palace: Kazipet",
    "VenueAddress": "Hyderabad-Warangal-Bhopalpatnam Road, Rahamatnagar, Main Road, Warangal, Telangana 506003, India",
    "City": "Warangal",
    "State": "Telangana",
    "RegionCode": "WAR",
    "SubRegionCode": "WAR",
    "Latitude": "18.000055",
    "Longitude": "79.588167",
    "AvailableFormats": "2D"
  },
  "KRGD": {
    "VenueCode": "KRGD",
    "VenueName": "Krishna Theater: Giddalur",
    "VenueAddress": "Racherla Gate Center, Racherla Road, Giddalur, Andhra Pradesh 523357, India",
    "City": "Giddalur",
    "State": "Andhra Pradesh",
    "RegionCode": "GDAL",
    "SubRegionCode": "GDAL",
    "Latitude": "15.3809",
    "Longitude": "78.9312",
    "AvailableFormats": "2D"
  },
  "SLJJ": {
    "VenueCode": "SLJJ",
    "VenueName": "Sri Lakshmi Talkies A/c 2K Dolby: Jangareddy Gudem",
    "VenueAddress": "Eluru Jangareddygudem Road, Near ICICI Bank, Jangareddy Gudem, Andhra Pradesh 534447, India",
    "City": "Jangareddy Gudem",
    "State": "Andhra Pradesh",
    "RegionCode": "JANG",
    "SubRegionCode": "JANG",
    "Latitude": "17.1174",
    "Longitude": "81.2977",
    "AvailableFormats": "2D"
  },
  "SPTJ": {
    "VenueCode": "SPTJ",
    "VenueName": "Sri Padma Theater A/C 2K Dolby: Jangareddy Gudem",
    "VenueAddress": "Buttaigudem Road, Near Vigneshwara Motors, Jangareddy Gudem, Andhra Pradesh 534447, India",
    "City": "Jangareddy Gudem",
    "State": "Andhra Pradesh",
    "RegionCode": "JANG",
    "SubRegionCode": "JANG",
    "Latitude": "17.1274",
    "Longitude": "81.3007",
    "AvailableFormats": "2D"
  },
  "SWJG": {
    "VenueCode": "SWJG",
    "VenueName": "Sowbhagya Theatre: Jangareddy Gudem",
    "VenueAddress": "Near State Bank of India, Next to Sowbhagya Lodge, Jangareddy Gudem, Andhra Pradesh 534447, India",
    "City": "Jangareddy Gudem",
    "State": "Andhra Pradesh",
    "RegionCode": "JANG",
    "SubRegionCode": "JANG",
    "Latitude": "17.118",
    "Longitude": "81.2964",
    "AvailableFormats": "2D"
  },
  "LKRT": {
    "VenueCode": "LKRT",
    "VenueName": "Laxmi AC Deluxe Theatre: Korutla",
    "VenueAddress": "Indira Road, Raheempura, Korutla, Telangana 505326, India",
    "City": "Korutla",
    "State": "Telangana",
    "RegionCode": "KCKA",
    "SubRegionCode": "KCKA",
    "Latitude": "18.8266",
    "Longitude": "78.7124",
    "AvailableFormats": "2D"
  },
  "KCKA": {
    "VenueCode": "KCKA",
    "VenueName": "Kinnera Deluxe Theatre: Korutla",
    "VenueAddress": "Nizamabad - Mancherial Road, NH 63, Near LIC of India Satellite Ofc, Korutla, Telangana 505326, India",
    "City": "Korutla",
    "State": "Telangana",
    "RegionCode": "KCKA",
    "SubRegionCode": "KCKA",
    "Latitude": "18.8262",
    "Longitude": "78.7134",
    "AvailableFormats": "2D"
  },
  "SNCR": {
    "VenueCode": "SNCR",
    "VenueName": "Sanelite Cinemas (Pethapur): Gandhinagar",
    "VenueAddress": "212 Bosky The Mall, Pethapur Cross Road, Pethapur, Gandhinagar, Gujarat 382610, India",
    "City": "Gandhinagar",
    "State": "Gujarat",
    "RegionCode": "GNAGAR",
    "SubRegionCode": "GNAGAR",
    "Latitude": "23.2674",
    "Longitude": "72.6674",
    "AvailableFormats": "2D"
  },
  "SMKL": {
    "VenueCode": "SMKL",
    "VenueName": "Sanskruti Movieplex: Kalol",
    "VenueAddress": "Old Aadhar Mall, Ahmedabad-Mehsana Highway, Opposite St Work Shop, Kalol (Gandhinagar), Gujarat 382721, India",
    "City": "Kalol (Gandhinagar)",
    "State": "Gujarat",
    "RegionCode": "KALG",
    "SubRegionCode": "KALG",
    "Latitude": "23.2318",
    "Longitude": "72.5051",
    "AvailableFormats": "2D"
  },
  "GCFA": {
    "VenueCode": "GCFA",
    "VenueName": "Gandheswari Chitralaya: Fulkushma",
    "VenueAddress": "Gandheswari Chitralaya, Bankura Road, Fulkusma, West Bengal 722134, India",
    "City": "Fulkusma",
    "State": "West Bengal",
    "RegionCode": "FULK",
    "SubRegionCode": "FULK",
    "Latitude": "22.7119",
    "Longitude": "86.8696",
    "AvailableFormats": "2D"
  },
  "DDCK": {
    "VenueCode": "DDCK",
    "VenueName": "DD Cinemas: Cine Krishna Mall, Hajipur",
    "VenueAddress": "Cine Krishna Mall ,1st Floor, Cinema Road, Hajipur, Bihar 844101, India",
    "City": "Hajipur",
    "State": "Bihar",
    "RegionCode": "HAJI",
    "SubRegionCode": "HAJI",
    "Latitude": "25.6943",
    "Longitude": "85.2116",
    "AvailableFormats": "2D|3D"
  },
  "NCHJ": {
    "VenueCode": "NCHJ",
    "VenueName": "Navin Cinema: Hajipur",
    "VenueAddress": "Ram Balak Chowk, Naveen Cinema Road, JP Colony, Yadav Nagar, Near Commmunity Hall, Hajipur, Bihar 844101, India",
    "City": "Hajipur",
    "State": "Bihar",
    "RegionCode": "HAJI",
    "SubRegionCode": "HAJI",
    "Latitude": "25.6942",
    "Longitude": "85.215",
    "AvailableFormats": "2D"
  },
  "RDMA": {
    "VenueCode": "RDMA",
    "VenueName": "RD Multiplex: Atraulia",
    "VenueAddress": "Vill Kantalpur Post, Atarulia Tah Bhooranpur, Atarulia Mahrajganj Road, Azamgarh, Atraulia, Uttar Pradesh 223223, India",
    "City": "Atraulia",
    "State": "Uttar Pradesh",
    "RegionCode": "ATRA",
    "SubRegionCode": "ATRA",
    "Latitude": "26.3369",
    "Longitude": "82.9384",
    "AvailableFormats": "2D"
  },
  "SVSV": {
    "VenueCode": "SVSV",
    "VenueName": "Sri Vasavi Kalamandir A/C DTS: Bobbili",
    "VenueAddress": "Vasavi Theatre Street, Maharanipeta, Bobbili, Andhra Pradesh 535558, India",
    "City": "Bobbili",
    "State": "Andhra Pradesh",
    "RegionCode": "BOBB",
    "SubRegionCode": "BOBB",
    "Latitude": "18.5742",
    "Longitude": "83.3592",
    "AvailableFormats": "2D"
  },
  "SCJG": {
    "VenueCode": "SCJG",
    "VenueName": "Suraj Cineplex: Junagadh",
    "VenueAddress": "Hajiyani Baug, College Road, Near Suraj Funworld, Gandhi Gram, Junagadh, Gujarat 362001, India",
    "City": "Junagadh",
    "State": "Gujarat",
    "RegionCode": "JUGH",
    "SubRegionCode": "JUGH",
    "Latitude": "21.5081",
    "Longitude": "70.458",
    "AvailableFormats": "2D"
  },
  "VKLP": {
    "VenueCode": "VKLP",
    "VenueName": "Vijay Cinema: Kalol, Panchmahal",
    "VenueAddress": "Jantral, Navapura Main Road, Kalol (Panchmahal), Gujarat 389330, India",
    "City": "Kalol (Panchmahal)",
    "State": "Gujarat",
    "RegionCode": "PANH",
    "SubRegionCode": "PANH",
    "Latitude": "22.6074",
    "Longitude": "73.4649",
    "AvailableFormats": "2D"
  },
  "NWCC": {
    "VenueCode": "NWCC",
    "VenueName": "New Capitol Cinema: Nainital",
    "VenueAddress": "Jubilee Hall Apartments, Mall Road,Mallital, Opp Nainital Stadium, Nainital, Uttarakhand 263002, India",
    "City": "Nainital",
    "State": "Uttarakhand",
    "RegionCode": "NAIN",
    "SubRegionCode": "NAIN",
    "Latitude": "29.3902",
    "Longitude": "79.4548",
    "AvailableFormats": "2D"
  },
  "VKNS": {
    "VenueCode": "VKNS",
    "VenueName": "VKNS Cinemas: Sultanpur",
    "VenueAddress": "2nd Floor, VKNS Mall, Opposite DM Residence, Civil Line, Sultanpur, Uttar Pradesh 228001, India",
    "City": "Sultanpur",
    "State": "Uttar Pradesh",
    "RegionCode": "SLUT",
    "SubRegionCode": "SLUT",
    "Latitude": "26.2651",
    "Longitude": "82.0744",
    "AvailableFormats": "2D"
  },
  "SDDP": {
    "VenueCode": "SDDP",
    "VenueName": "Shubham DD Plex: Sultanpur",
    "VenueAddress": "Dariyapur Road, Behind Dr. Ram Ji Gupta Eye Hospital, Khairabad, Sultanpur, Uttar Pradesh 228001, India",
    "City": "Sultanpur",
    "State": "Uttar Pradesh",
    "RegionCode": "SLUT",
    "SubRegionCode": "SLUT",
    "Latitude": "26.2552",
    "Longitude": "82.0691",
    "AvailableFormats": "2D"
  },
  "ACSI": {
    "VenueCode": "ACSI",
    "VenueName": "Adhiraj Cinemas: Shamli",
    "VenueAddress": "Shamli-Kairana Road, Near Shubh Lagan Marriage Hall, Shamli, Uttar Pradesh 247776, India",
    "City": "Shamli",
    "State": "Uttar Pradesh",
    "RegionCode": "SHAM",
    "SubRegionCode": "SHAM",
    "Latitude": "29.4176",
    "Longitude": "77.2509",
    "AvailableFormats": "2D"
  },
  "SATG": {
    "VenueCode": "SATG",
    "VenueName": "Shankar Talkies: Gauribidanur",
    "VenueAddress": "Shankar Talkies, Railway Station Road, Gauribidanur, Karnataka 561208, India",
    "City": "Gauribidanur",
    "State": "Karnataka",
    "RegionCode": "GAUR",
    "SubRegionCode": "GAUR",
    "Latitude": "13.6118",
    "Longitude": "77.514",
    "AvailableFormats": "2D"
  },
  "SCMW": {
    "VenueCode": "SCMW",
    "VenueName": "Satyam Cinemax: Warora",
    "VenueAddress": "Hanuman Warad Yatra Road, Near Warora Bus Stand, Warora, Maharashtra 442907, India",
    "City": "Warora",
    "State": "Maharashtra",
    "RegionCode": "WRRA",
    "SubRegionCode": "WRRA",
    "Latitude": "20.2312",
    "Longitude": "79.0092",
    "AvailableFormats": "2D"
  },
  "LKTK": {
    "VenueCode": "LKTK",
    "VenueName": "Lakshmi Raam Theatre: Karur",
    "VenueAddress": "No 61, Dindigul Road, Opposite Bombay sweets and Bakery, Karur, Tamil Nadu 639001, India",
    "City": "Karur",
    "State": "Tamil Nadu",
    "RegionCode": "KARU",
    "SubRegionCode": "KARU",
    "Latitude": "10.9587",
    "Longitude": "78.0829",
    "AvailableFormats": "2D"
  },
  "VCKV": {
    "VenueCode": "VCKV",
    "VenueName": "Veera Cinemas A/C 4K Dolby Atmos: Vellakoil",
    "VenueAddress": "224, Kovai Main Road, Vellakovil-Tiruppur, Vellakoil, Tamil Nadu 638111, India",
    "City": "Vellakoil",
    "State": "Tamil Nadu",
    "RegionCode": "KGKM",
    "SubRegionCode": "KGKM",
    "Latitude": "10.9486",
    "Longitude": "77.7029",
    "AvailableFormats": "2D"
  },
  "KKPE": {
    "VenueCode": "KKPE",
    "VenueName": "Krishna Theatre Dolby 7.1: Koluthupalayam",
    "VenueAddress": "State Highway 172A, Koluthupalayam, Erode, Near Kombanaipudur Bus Stop, Erode, Tamil Nadu 638152, India",
    "City": "Erode",
    "State": "Tamil Nadu",
    "RegionCode": "KARU",
    "SubRegionCode": "KARU",
    "Latitude": "11.1297",
    "Longitude": "77.8609",
    "AvailableFormats": "2D"
  },
  "KIGH": {
    "VenueCode": "KIGH",
    "VenueName": "Kingfisher Multiplex: Mandla",
    "VenueAddress": "Maharajpur, Kolpewadi, Mandla Road, Rangoli Restaurant, Mandla, Madhya Pradesh 481665, India",
    "City": "Mandla",
    "State": "Madhya Pradesh",
    "RegionCode": "MADL",
    "SubRegionCode": "MADL",
    "Latitude": "22.5624",
    "Longitude": "80.3518",
    "AvailableFormats": "2D"
  },
  "SRPM": {
    "VenueCode": "SRPM",
    "VenueName": "Sivaram Theater: Pamarru",
    "VenueAddress": "NH65, Near State Bank of India, Pamarru, Andhra Pradesh 521157, India",
    "City": "Pamarru",
    "State": "Andhra Pradesh",
    "RegionCode": "PAMA",
    "SubRegionCode": "PAMA",
    "Latitude": "16.3225",
    "Longitude": "80.9602",
    "AvailableFormats": "2D"
  },
  "SCAH": {
    "VenueCode": "SCAH",
    "VenueName": "Sanmax Cinemas: Azamgarh",
    "VenueAddress": "Vishal Multiplex, Sidhari, Jamalpur Baz Bahadur, Azamgarh, Uttar Pradesh 276001, India",
    "City": "Azamgarh",
    "State": "Uttar Pradesh",
    "RegionCode": "AZMG",
    "SubRegionCode": "AZMG",
    "Latitude": "26.0426",
    "Longitude": "83.1878",
    "AvailableFormats": "2D|3D"
  },
  "MUTA": {
    "VenueCode": "MUTA",
    "VenueName": "Murli DD Cinemas: Azmagarh",
    "VenueAddress": "City Life Mall, Paharpur, Azamgarh Dohrighat Gorakhpur Road, Near Bhairo Baba Mandir Maharajgang, Azamgarh, Uttar Pradesh 276001, India",
    "City": "Azamgarh",
    "State": "Uttar Pradesh",
    "RegionCode": "AZMG",
    "SubRegionCode": "AZMG",
    "Latitude": "26.0749",
    "Longitude": "83.1866",
    "AvailableFormats": "2D"
  },
  "SEPU": {
    "VenueCode": "SEPU",
    "VenueName": "Sri Venkateswara A/C Dolby Sound: Penuganchiprolu",
    "VenueAddress": "Near Ammavari Mandapam, By-Pass Road, Penuganchiprolu, Andhra Pradesh 521190, India",
    "City": "Penuganchiprolu",
    "State": "Andhra Pradesh",
    "RegionCode": "PENU",
    "SubRegionCode": "PENU",
    "Latitude": "16.9053",
    "Longitude": "80.2408",
    "AvailableFormats": "2D"
  },
  "INOA": {
    "VenueCode": "INOA",
    "VenueName": "INOX: Osia A Wing Margao, Goa",
    "VenueAddress": "A Wing, 2nd Floor, Osia Commercial Arcade, SGPDA Market Complex, Margao, Goa, Goa 403601, India",
    "City": "Goa",
    "State": "Goa",
    "RegionCode": "BTBM",
    "SubRegionCode": "BTBM",
    "Latitude": "15.2859",
    "Longitude": "73.9572",
    "AvailableFormats": "2D|3D"
  },
  "BASK": {
    "VenueCode": "BASK",
    "VenueName": "Bhaskarjyoti Cinema: Sivasagar",
    "VenueAddress": "AT Road, Bhatiapar, Near Bhatiapar Petrol Pump, Sivasagar, Assam 785697, India",
    "City": "Sivasagar",
    "State": "Assam",
    "RegionCode": "SVSG",
    "SubRegionCode": "SVSG",
    "Latitude": "26.953",
    "Longitude": "94.5718",
    "AvailableFormats": "2D"
  },
  "NECB": {
    "VenueCode": "NECB",
    "VenueName": "Neelam Cinema: Billawar",
    "VenueAddress": "Tilla Billawar, Near Bharat Stone Crusher, Billawar, Jammu and Kashmir 184203, India",
    "City": "Billawar",
    "State": "Jammu and Kashmir",
    "RegionCode": "BILL",
    "SubRegionCode": "BILL",
    "Latitude": "32.6136",
    "Longitude": "75.6041",
    "AvailableFormats": "2D"
  },
  "GTTG": {
    "VenueCode": "GTTG",
    "VenueName": "Ganesh Talkies: Talcher",
    "VenueAddress": "Angul Talcher Road, Next to Hingula Jewellers, Talcher, Odisha 759100, India",
    "City": "Talcher",
    "State": "Odisha",
    "RegionCode": "TALC",
    "SubRegionCode": "TALC",
    "Latitude": "20.9469",
    "Longitude": "85.2157",
    "AvailableFormats": "2D"
  },
  "ASSA": {
    "VenueCode": "ASSA",
    "VenueName": "Asian Srinivasa: Mancherial",
    "VenueAddress": "Station Road, Mancherial, Mancherial, Telangana 504302, India",
    "City": "Mancherial",
    "State": "Telangana",
    "RegionCode": "MANC",
    "SubRegionCode": "MANC",
    "Latitude": "18.8705",
    "Longitude": "79.4472",
    "AvailableFormats": "2D"
  },
  "ANCL": {
    "VenueCode": "ANCL",
    "VenueName": "Anbu Cinemas A/C 7.1: Lalgudi",
    "VenueAddress": "No.79F, Main Road, Opposite IOB, Lalgudi, Tamil Nadu 621601, India",
    "City": "Lalgudi",
    "State": "Tamil Nadu",
    "RegionCode": "LALG",
    "SubRegionCode": "LALG",
    "Latitude": "10.8747",
    "Longitude": "78.8186",
    "AvailableFormats": "2D"
  },
  "GCTI": {
    "VenueCode": "GCTI",
    "VenueName": "Galleria Cinemas: ATC Mall, Tinsukia",
    "VenueAddress": "ATC Mall, GNB Road, Tinsukia, Assam 786125, India",
    "City": "Tinsukia",
    "State": "Assam",
    "RegionCode": "TINS",
    "SubRegionCode": "TINS",
    "Latitude": "27.492",
    "Longitude": "95.3617",
    "AvailableFormats": "2D"
  },
  "RCTS": {
    "VenueCode": "RCTS",
    "VenueName": "Rangghar Cinema: Tinsukia",
    "VenueAddress": "G.N.B Road, GPO, Near State Bank of India, Tinsukia, Assam 786125, India",
    "City": "Tinsukia",
    "State": "Assam",
    "RegionCode": "TINS",
    "SubRegionCode": "TINS",
    "Latitude": "27.4882",
    "Longitude": "95.355",
    "AvailableFormats": "2D"
  },
  "ACNL": {
    "VenueCode": "ACNL",
    "VenueName": "Ajanta Cineplex: Nilanga, Latur",
    "VenueAddress": "Nilanga Main Road, Opposite Nilanga Bus Stop, Nilanga, Maharashtra 413521, India",
    "City": "Nilanga",
    "State": "Maharashtra",
    "RegionCode": "NLNG",
    "SubRegionCode": "NLNG",
    "Latitude": "18.1276",
    "Longitude": "76.7493",
    "AvailableFormats": "2D"
  },
  "MYCT": {
    "VenueCode": "MYCT",
    "VenueName": "MY Cinemas: Thalayolaparambu, Kerala",
    "VenueAddress": "Thalayolaparambu P.O,Kottayam, Ernakulam Road, Ernakulam Road, Near Bharat Petrol Pump, Thalayolaparambu, Kerala 686605, India",
    "City": "Thalayolaparambu",
    "State": "Kerala",
    "RegionCode": "THAL",
    "SubRegionCode": "THAL",
    "Latitude": "9.78555",
    "Longitude": "76.4529",
    "AvailableFormats": "2D"
  },
  "NMHT": {
    "VenueCode": "NMHT",
    "VenueName": "Nice Movie House: Thalayolaparambu",
    "VenueAddress": "Vaikom Road, Thalayolaparambu, Kottayam, Near Medicity Cooperative Hospital, Thalayolaparambu, Kerala 686605, India",
    "City": "Thalayolaparambu",
    "State": "Kerala",
    "RegionCode": "THAL",
    "SubRegionCode": "THAL",
    "Latitude": "9.78703",
    "Longitude": "76.4405",
    "AvailableFormats": "2D"
  },
  "MDIT": {
    "VenueCode": "MDIT",
    "VenueName": "A-Moorthys Drive-In Theatre: Trichy",
    "VenueAddress": "484 Navalurkottapattu, Dindigul High Road, Trichy, Tamil Nadu 620009, India",
    "City": "Trichy",
    "State": "Tamil Nadu",
    "RegionCode": "TRIC",
    "SubRegionCode": "TRIC",
    "Latitude": "10.7464",
    "Longitude": "78.59",
    "AvailableFormats": "2D"
  },
  "LATG": {
    "VenueCode": "LATG",
    "VenueName": "LA CINEMA MARIS COMPLEX RGB LASER: TRICHY",
    "VenueAddress": "Maris Theater Complex, Fort Station Road, Trichy, Tamil Nadu 620002, India",
    "City": "Trichy",
    "State": "Tamil Nadu",
    "RegionCode": "TRIC",
    "SubRegionCode": "TRIC",
    "Latitude": "10.8274",
    "Longitude": "78.6894",
    "AvailableFormats": "2D"
  },
  "SMTY": {
    "VenueCode": "SMTY",
    "VenueName": "LA Cinema Sona Mina RGB Laser: Trichy",
    "VenueAddress": "8G Williams Rd, Melapudur,Cantonment,Tiruchirappalli, Near Central Bus Stand, Trichy, Tamil Nadu 620001, India",
    "City": "Trichy",
    "State": "Tamil Nadu",
    "RegionCode": "TRIC",
    "SubRegionCode": "TRIC",
    "Latitude": "10.8012",
    "Longitude": "78.6839",
    "AvailableFormats": "2D"
  },
  "CVCT": {
    "VenueCode": "CVCT",
    "VenueName": "Cauvery Cinemas 4K RGB LASER: Trichy",
    "VenueAddress": "Heber Road, Palakarai, Trichy, Near Corporation Park, Trichy, Tamil Nadu 620001, India",
    "City": "Trichy",
    "State": "Tamil Nadu",
    "RegionCode": "TRIC",
    "SubRegionCode": "TRIC",
    "Latitude": "10.8088",
    "Longitude": "78.6955",
    "AvailableFormats": "2D"
  },
  "RAMB": {
    "VenueCode": "RAMB",
    "VenueName": "Ramba A/C RGB Laser Dolby Atmos: Trichy",
    "VenueAddress": "Karur Bypass road, Near Chathram Bus stand, Trichy, Tamil Nadu 620002, India",
    "City": "Trichy",
    "State": "Tamil Nadu",
    "RegionCode": "TRIC",
    "SubRegionCode": "TRIC",
    "Latitude": "10.8344",
    "Longitude": "78.6935",
    "AvailableFormats": "2D"
  },
  "TGMS": {
    "VenueCode": "TGMS",
    "VenueName": "Megastar Cinemas: Premium Large Format DOLBY ATMOS",
    "VenueAddress": "Mega Star, Salai Road Tiruchirappalli, Annamalai Nagar, Trichy, Tamil Nadu 620003, India",
    "City": "Trichy",
    "State": "Tamil Nadu",
    "RegionCode": "TRIC",
    "SubRegionCode": "TRIC",
    "Latitude": "10.8273",
    "Longitude": "78.6862",
    "AvailableFormats": "2D"
  },
  "BHEL": {
    "VenueCode": "BHEL",
    "VenueName": "BHELEC Cinema A/C Dolby 7.1: Trichy",
    "VenueAddress": "Kamarajapuram BHEL Township, BHEL Tiruchirappali Complex area,Thiruverumbur,Trichy, Near BHEL Training Center, Trichy, Tamil Nadu 620022, India",
    "City": "Trichy",
    "State": "Tamil Nadu",
    "RegionCode": "TRIC",
    "SubRegionCode": "TRIC",
    "Latitude": "10.7695",
    "Longitude": "78.7974",
    "AvailableFormats": "2D"
  },
  "SHCT": {
    "VenueCode": "SHCT",
    "VenueName": "Shanthi Cinemas A/C 4K DOLBY ATMOS: Thiruverumbur",
    "VenueAddress": "Thanjavur Main Road, Thiruverumbur, Tiruchirappalli, Trichy, Tamil Nadu 620013, India",
    "City": "Trichy",
    "State": "Tamil Nadu",
    "RegionCode": "TRIC",
    "SubRegionCode": "TRIC",
    "Latitude": "10.7841",
    "Longitude": "78.7776",
    "AvailableFormats": "2D"
  },
  "SVCT": {
    "VenueCode": "SVCT",
    "VenueName": "Sri Venkatesa Cinemas A/C Dolby Atmos",
    "VenueAddress": "VS Nagar, Thiruvanaikoil, Srirangam, Near TVS Shriraj Agencies, Trichy, Tamil Nadu 620005, India",
    "City": "Trichy",
    "State": "Tamil Nadu",
    "RegionCode": "TRIC",
    "SubRegionCode": "TRIC",
    "Latitude": "10.8586",
    "Longitude": "78.7026",
    "AvailableFormats": "2D"
  },
  "MRIY": {
    "VenueCode": "MRIY",
    "VenueName": "Mariyam Cinemas A/C 4K: Trichy",
    "VenueAddress": "No-228/1, Sangiliyandapuram Main Road, Trichy, Tamil Nadu 620001, India",
    "City": "Trichy",
    "State": "Tamil Nadu",
    "RegionCode": "TRIC",
    "SubRegionCode": "TRIC",
    "Latitude": "10.7984",
    "Longitude": "78.7042",
    "AvailableFormats": "2D"
  },
  "SARO": {
    "VenueCode": "SARO",
    "VenueName": "Saroja Cinemas 2K A/C, Ariyamangalam: Trichy",
    "VenueAddress": "Thanjavur Kula St, Rail Nagar,Tiruchchirappalli, Near Anjappar Chettinadu Restaurant, Trichy, Tamil Nadu 620002, India",
    "City": "Trichy",
    "State": "Tamil Nadu",
    "RegionCode": "TRIC",
    "SubRegionCode": "TRIC",
    "Latitude": "10.805",
    "Longitude": "78.7319",
    "AvailableFormats": "2D"
  },
  "STCT": {
    "VenueCode": "STCT",
    "VenueName": "Star Theatre A/C DTS: Trichy",
    "VenueAddress": "No 77/174, Madurai Road, Palakarai, Near FGM Complex, Trichy, Tamil Nadu 620008, India",
    "City": "Trichy",
    "State": "Tamil Nadu",
    "RegionCode": "TRIC",
    "SubRegionCode": "TRIC",
    "Latitude": "10.8166",
    "Longitude": "78.6929",
    "AvailableFormats": "2D"
  },
  "JKKC": {
    "VenueCode": "JKKC",
    "VenueName": "Jothi Theatre A/C 4K 7.1 (Viralimalai): Trichy",
    "VenueAddress": "Maduraimain Road, Viralimalai , Pudukottai, Viralimalai, Tamil Nadu 621316, India",
    "City": "Viralimalai",
    "State": "Tamil Nadu",
    "RegionCode": "PUDH",
    "SubRegionCode": "PUDH",
    "Latitude": "10.5971",
    "Longitude": "78.544",
    "AvailableFormats": "2D"
  },
  "PLTT": {
    "VenueCode": "PLTT",
    "VenueName": "Palace Theatre: Tiruchirappalli",
    "VenueAddress": "162, Madurai Road, Palakarai, Sangillyandapuram, Opposite Inspector of Matriculation Schools, Education Office, Trichy, Tamil Nadu 620008, India",
    "City": "Trichy",
    "State": "Tamil Nadu",
    "RegionCode": "TRIC",
    "SubRegionCode": "TRIC",
    "Latitude": "10.8151",
    "Longitude": "78.6933",
    "AvailableFormats": "2D"
  },
  "SRNT": {
    "VenueCode": "SRNT",
    "VenueName": "Sri Rengaraj Talkies: Tiruchirappalli",
    "VenueAddress": "6B 1/5 EVS Street, Ranga Nagar, Srirangam, Trichy, Tamil Nadu 620006, India",
    "City": "Trichy",
    "State": "Tamil Nadu",
    "RegionCode": "TRIC",
    "SubRegionCode": "TRIC",
    "Latitude": "10.8554",
    "Longitude": "78.6901",
    "AvailableFormats": "2D"
  },
  "YAST": {
    "VenueCode": "YAST",
    "VenueName": "Yaashitaa Multiplex: Palampur",
    "VenueAddress": "Dharamshala Road, Ghuggar, Near Sarovar Portico, District Kangra, Palampur, Himachal Pradesh 176061, India",
    "City": "Palampur",
    "State": "Himachal Pradesh",
    "RegionCode": "PALM",
    "SubRegionCode": "PALM",
    "Latitude": "32.1111",
    "Longitude": "76.532",
    "AvailableFormats": "2D"
  },
  "PERL": {
    "VenueCode": "PERL",
    "VenueName": "Pearl Cinema: Palampur",
    "VenueAddress": "Maranda, Kasoti, Mandi - Pathankot Road, Palampur, Himachal Pradesh 176102, India",
    "City": "Palampur",
    "State": "Himachal Pradesh",
    "RegionCode": "PALM",
    "SubRegionCode": "PALM",
    "Latitude": "32.0841",
    "Longitude": "76.5133",
    "AvailableFormats": "2D"
  },
  "CICM": {
    "VenueCode": "CICM",
    "VenueName": "Chitranjali Cinema: Math Chandipur",
    "VenueAddress": "Mayukh Gift Corner, Nandigram Road, Math Chandipur, West Bengal 721659, India",
    "City": "Math Chandipur",
    "State": "West Bengal",
    "RegionCode": "MPUR",
    "SubRegionCode": "MPUR",
    "Latitude": "22.0886",
    "Longitude": "87.8576",
    "AvailableFormats": "2D"
  },
  "MMTR": {
    "VenueCode": "MMTR",
    "VenueName": "Dhanya Remya: Kottayam",
    "VenueAddress": "Main Central Road, Kollam - Theni Highway, Near BSNL Bhavan, Kottayam, Kerala 686001, India",
    "City": "Kottayam",
    "State": "Kerala",
    "RegionCode": "ETTU",
    "SubRegionCode": "ETTU",
    "Latitude": "9.5866",
    "Longitude": "76.5213",
    "AvailableFormats": "2D"
  },
  "ABTK": {
    "VenueCode": "ABTK",
    "VenueName": "Abhilash Theatre 4K: Kottayam",
    "VenueAddress": "M.C Road, Opp Kalyan Jewellery, Near Asha Theatre, Kottayam, Kerala 686001, India",
    "City": "Kottayam",
    "State": "Kerala",
    "RegionCode": "ETTU",
    "SubRegionCode": "ETTU",
    "Latitude": "9.58599",
    "Longitude": "76.5244",
    "AvailableFormats": "2D"
  },
  "ATYY": {
    "VenueCode": "ATYY",
    "VenueName": "Anand Theatre Triple Beam 3D: Kottayam",
    "VenueAddress": "TB Road, Eerayil Kadavu, Near Asha Theatre, Kottayam, Kerala 686001, India",
    "City": "Kottayam",
    "State": "Kerala",
    "RegionCode": "ETTU",
    "SubRegionCode": "ETTU",
    "Latitude": "9.58613",
    "Longitude": "76.5241",
    "AvailableFormats": "2D"
  },
  "ASTK": {
    "VenueCode": "ASTK",
    "VenueName": "Asha Theatre: Kottayam",
    "VenueAddress": "T.B Road, Near Ksrtc Bus Stand, Near Abhilash Theater, Kottayam, Kerala 686001, India",
    "City": "Kottayam",
    "State": "Kerala",
    "RegionCode": "ETTU",
    "SubRegionCode": "ETTU",
    "Latitude": "9.58609",
    "Longitude": "76.5245",
    "AvailableFormats": "2D"
  },
  "VVCK": {
    "VenueCode": "VVCK",
    "VenueName": "Velvet View Cinemas: Kumarakom",
    "VenueAddress": "SH42, Athikkalam, Kumarakom, Kerala 686563, India",
    "City": "Kumarakom",
    "State": "Kerala",
    "RegionCode": "KMOA",
    "SubRegionCode": "KMOA",
    "Latitude": "9.59286",
    "Longitude": "76.436",
    "AvailableFormats": "2D"
  },
  "ATKY": {
    "VenueCode": "ATKY",
    "VenueName": "Anaswara Theatre 2K Triple Beam 3D: Kottayam",
    "VenueAddress": "Palace Road, Thirunakara, Behind Bharath Hospital Puthenangady, Kottayam, Kerala 686001, India",
    "City": "Kottayam",
    "State": "Kerala",
    "RegionCode": "ETTU",
    "SubRegionCode": "ETTU",
    "Latitude": "9.58952",
    "Longitude": "76.5179",
    "AvailableFormats": "2D"
  },
  "GWEK": {
    "VenueCode": "GWEK",
    "VenueName": "Goodwill Cinemas 4K RGB LASER Atmos 3D: Kallara",
    "VenueAddress": "Kallara - Neendoor - Pravattom Road, Neendoor, Kallara, Kerala 686611, India",
    "City": "Kallara",
    "State": "Kerala",
    "RegionCode": "ETTU",
    "SubRegionCode": "ETTU",
    "Latitude": "9.70018",
    "Longitude": "76.4759",
    "AvailableFormats": "2D"
  },
  "SVFH": {
    "VenueCode": "SVFH",
    "VenueName": "SVF Cinemas: Haldia",
    "VenueAddress": "Ambuja City Centre, Ground Floor, Debhog, Bhabanipur, Near HDA Building, Haldia, West Bengal 721657, India",
    "City": "Haldia",
    "State": "West Bengal",
    "RegionCode": "HLDI",
    "SubRegionCode": "HLDI",
    "Latitude": "22.0597",
    "Longitude": "88.0754",
    "AvailableFormats": "2D"
  },
  "SLTA": {
    "VenueCode": "SLTA",
    "VenueName": "Sai Laxmi Theatre: Sirohi",
    "VenueAddress": "Ahmedabad Road, Opposite Govt Nursery, Sirohi, Rajasthan 307001, India",
    "City": "Sirohi",
    "State": "Rajasthan",
    "RegionCode": "SIRO",
    "SubRegionCode": "SIRO",
    "Latitude": "24.8762",
    "Longitude": "72.8772",
    "AvailableFormats": "2D"
  },
  "AASH": {
    "VenueCode": "AASH",
    "VenueName": "Adarsh Chitra Mandir: Bhandara",
    "VenueAddress": "Gandhi Square, Gandhi Chowk, Santaji Nagar, Bhandara, Maharashtra 441904, India",
    "City": "Bhandara",
    "State": "Maharashtra",
    "RegionCode": "BHAA",
    "SubRegionCode": "BHAA",
    "Latitude": "21.17",
    "Longitude": "79.6562",
    "AvailableFormats": "2D"
  },
  "ACXB": {
    "VenueCode": "ACXB",
    "VenueName": "AR Cineplex: Bhandara",
    "VenueAddress": "Aswale Park, Samruddhi Nagar, Bhandara, Maharashtra 441906, India",
    "City": "Bhandara",
    "State": "Maharashtra",
    "RegionCode": "BHAA",
    "SubRegionCode": "BHAA",
    "Latitude": "21.1761",
    "Longitude": "79.6388",
    "AvailableFormats": "2D"
  },
  "SMTX": {
    "VenueCode": "SMTX",
    "VenueName": "Smile Multiplex: Tumsar",
    "VenueAddress": "New Ganj Bazar, Beside Vikram Palace Hotel, Hasara Road, Bhandara, Tumsar, Maharashtra 441912, India",
    "City": "Tumsar",
    "State": "Maharashtra",
    "RegionCode": "BHAA",
    "SubRegionCode": "BHAA",
    "Latitude": "21.3748",
    "Longitude": "79.7284",
    "AvailableFormats": "2D"
  },
  "AZDH": {
    "VenueCode": "AZDH",
    "VenueName": "AZ Miniplex: Bhandara",
    "VenueAddress": "Gandhi Chawk, Behind - Urban Bank, Bhandara, Maharashtra 441904, India",
    "City": "Bhandara",
    "State": "Maharashtra",
    "RegionCode": "BHAA",
    "SubRegionCode": "BHAA",
    "Latitude": "21.1709",
    "Longitude": "79.657",
    "AvailableFormats": "2D"
  },
  "CMMH": {
    "VenueCode": "CMMH",
    "VenueName": "Chhotu Maharaj Cine Cafe: Lakhani",
    "VenueAddress": "Lakhani, Gadegaon, Opposite - Ashok Leyland, Bhandara, Maharashtra 441804, India",
    "City": "Bhandara",
    "State": "Maharashtra",
    "RegionCode": "BHAA",
    "SubRegionCode": "BHAA",
    "Latitude": "21.0849",
    "Longitude": "79.782",
    "AvailableFormats": "2D"
  },
  "SCSZ": {
    "VenueCode": "SCSZ",
    "VenueName": "Sanelite Cinemas: Sarthak Square, Visnagar",
    "VenueAddress": "3rd Floor, Sarthak Square, Opposite Tirupati Township, Dharoi Colony Road, Mahesana, Visnagar, Gujarat 384315, India",
    "City": "Visnagar",
    "State": "Gujarat",
    "RegionCode": "VISN",
    "SubRegionCode": "VISN",
    "Latitude": "23.6937",
    "Longitude": "72.5405",
    "AvailableFormats": "2D"
  },
  "SCKP": {
    "VenueCode": "SCKP",
    "VenueName": "Saradha Cinema: Kamanaickenpalayam",
    "VenueAddress": "SH19, Pollachi Highway, V Mattur Road, Kamanaickenpalayam, Tamil Nadu 641658, India",
    "City": "Kamanaickenpalayam",
    "State": "Tamil Nadu",
    "RegionCode": "KPLA",
    "SubRegionCode": "KPLA",
    "Latitude": "10.9068",
    "Longitude": "77.2174",
    "AvailableFormats": "2D"
  },
  "NXTM": {
    "VenueCode": "NXTM",
    "VenueName": "NXT Cinemas: Nr. Salal, Himmatnagar",
    "VenueAddress": "Gulmohar Square and Sapphire, 2nd Floor, NH 48, Salal, Himmatnagar, Gujarat 383120, India",
    "City": "Himmatnagar",
    "State": "Gujarat",
    "RegionCode": "HIMM",
    "SubRegionCode": "HIMM",
    "Latitude": "23.4927",
    "Longitude": "72.9042",
    "AvailableFormats": "2D"
  },
  "NWCS": {
    "VenueCode": "NWCS",
    "VenueName": "New Star City Multiplex: Himmatnagar",
    "VenueAddress": "Plot No: 21 to 33 and 53-B, GIDC Motipura, NH48, Near Hotel Khana Khazana, Himmatnagar, Gujarat 383001, India",
    "City": "Himmatnagar",
    "State": "Gujarat",
    "RegionCode": "HIMM",
    "SubRegionCode": "HIMM",
    "Latitude": "23.5734",
    "Longitude": "72.9576",
    "AvailableFormats": "2D"
  },
  "CXMH": {
    "VenueCode": "CXMH",
    "VenueName": "Cinemunch Mplex MCR: Himmatnagar",
    "VenueAddress": "Devdhan Complex, Sahakari Jin Road, Near Jyoti Supermarket, Himmatnagar, Gujarat 383001, India",
    "City": "Himmatnagar",
    "State": "Gujarat",
    "RegionCode": "HIMM",
    "SubRegionCode": "HIMM",
    "Latitude": "23.5823",
    "Longitude": "72.9728",
    "AvailableFormats": "2D"
  },
  "PCMA": {
    "VenueCode": "PCMA",
    "VenueName": "Piccadily Multiplex: Manali",
    "VenueAddress": "The Mall Road, Near Indian Petrol Bunk, Manali, Himachal Pradesh 175131, India",
    "City": "Manali",
    "State": "Himachal Pradesh",
    "RegionCode": "MANA",
    "SubRegionCode": "MANA",
    "Latitude": "32.2396",
    "Longitude": "77.1882",
    "AvailableFormats": "2D"
  },
  "SGCM": {
    "VenueCode": "SGCM",
    "VenueName": "Shri Goroba Kumbhar Chitra Mandir Cinema: Jamkhed",
    "VenueAddress": "Kumbhar Tale Jamkhed, At / Post-  Jamkhed Ahmednagar, Jamkhed, Maharashtra 413201, India",
    "City": "Jamkhed",
    "State": "Maharashtra",
    "RegionCode": "JAMK",
    "SubRegionCode": "JAMK",
    "Latitude": "18.7366",
    "Longitude": "75.3128",
    "AvailableFormats": "2D"
  },
  "SDTU": {
    "VenueCode": "SDTU",
    "VenueName": "Shivadam Cinemas RGB 4K Laser Atmos Triple Beam 3D",
    "VenueAddress": "Shornur Road, Kodungallur, Near Kurumbamkandath Finance, Thrissur, Kerala 680711, India",
    "City": "Thrissur",
    "State": "Kerala",
    "RegionCode": "MANR",
    "SubRegionCode": "MANR",
    "Latitude": "10.4185",
    "Longitude": "76.213",
    "AvailableFormats": "2D"
  },